{"type": "FeatureCollection", "features": [{"type": "Feature", "geometry": {"type": "Point", "coordinates": [1.5914, 42.5422]}, "properties": {"CNTR_ID": "AD", "CNTR_NAME": "Andorra", "NAME_ENGL": "Andorra", "NAME_FREN": "Andorre", "ISO3_CODE": "AND", "SVRG_UN": "UN Member State", "CAPT": "Andorra la Vella", "EU_STAT": "F", "EFTA_STAT": "F", "CC_STAT": "F", "NAME_GERM": "Andorra", "FID": "AD"}, "id": "AD"}, {"type": "Feature", "geometry": {"type": "Point", "coordinates": [53.9824, 23.4656]}, "properties": {"CNTR_ID": "AE", "CNTR_NAME": "الإمارات العربية المتحدة", "NAME_ENGL": "United Arab Emirates", "NAME_FREN": "Émirats arabes unis", "ISO3_CODE": "ARE", "SVRG_UN": "UN Member State", "CAPT": "Abu Dhabi", "EU_STAT": "F", "EFTA_STAT": "F", "CC_STAT": "F", "NAME_GERM": "Vereinigten Arabischen Emirate", "FID": "AE"}, "id": "AE"}, {"type": "Feature", "geometry": {"type": "Point", "coordinates": [65.9979, 33.8179]}, "properties": {"CNTR_ID": "AF", "CNTR_NAME": "افغانستان-افغانستان", "NAME_ENGL": "Afghanistan", "NAME_FREN": "Afghanistan", "ISO3_CODE": "AFG", "SVRG_UN": "UN Member State", "CAPT": "Kabul", "EU_STAT": "F", "EFTA_STAT": "F", "CC_STAT": "F", "NAME_GERM": "Afghanistan", "FID": "AF"}, "id": "AF"}, {"type": "Feature", "geometry": {"type": "Point", "coordinates": [-61.8097, 17.0785]}, "properties": {"CNTR_ID": "AG", "CNTR_NAME": "Antigua and Barbuda", "NAME_ENGL": "Antigua and Barbuda", "NAME_FREN": "Antigua-et-Barbuda", "ISO3_CODE": "ATG", "SVRG_UN": "UN Member State", "CAPT": "St John's", "EU_STAT": "F", "EFTA_STAT": "F", "CC_STAT": "F", "NAME_GERM": "Antigua und Barbuda", "FID": "AG"}, "id": "AG"}, {"type": "Feature", "geometry": {"type": "Point", "coordinates": [-63.0376, 18.2241]}, "properties": {"CNTR_ID": "AI", "CNTR_NAME": "Anguilla", "NAME_ENGL": "Anguilla", "NAME_FREN": "Anguilla", "ISO3_CODE": "AIA", "SVRG_UN": "UK Non-Self-Governing Territory", "CAPT": "The Valley", "EU_STAT": "F", "EFTA_STAT": "F", "CC_STAT": "F", "NAME_GERM": "Anguilla", "FID": "AI"}, "id": "AI"}, {"type": "Feature", "geometry": {"type": "Point", "coordinates": [20.0708, 41.1389]}, "properties": {"CNTR_ID": "AL", "CNTR_NAME": "Shqipëria", "NAME_ENGL": "Albania", "NAME_FREN": "Albanie", "ISO3_CODE": "ALB", "SVRG_UN": "UN Member State", "CAPT": "Tirana", "EU_STAT": "F", "EFTA_STAT": "F", "CC_STAT": "T", "NAME_GERM": "Albanien", "FID": "AL"}, "id": "AL"}, {"type": "Feature", "geometry": {"type": "Point", "coordinates": [44.9184, 40.3035]}, "properties": {"CNTR_ID": "AM", "CNTR_NAME": "Հայաստան", "NAME_ENGL": "Armenia", "NAME_FREN": "Arménie", "ISO3_CODE": "ARM", "SVRG_UN": "UN Member State", "CAPT": "Yerevan", "EU_STAT": "F", "EFTA_STAT": "F", "CC_STAT": "F", "NAME_GERM": "Armenien", "FID": "AM"}, "id": "AM"}, {"type": "Feature", "geometry": {"type": "Point", "coordinates": [17.5818, -12.3604]}, "properties": {"CNTR_ID": "AO", "CNTR_NAME": "Angola", "NAME_ENGL": "Angola", "NAME_FREN": "Angola", "ISO3_CODE": "AGO", "SVRG_UN": "UN Member State", "CAPT": "Luanda", "EU_STAT": "F", "EFTA_STAT": "F", "CC_STAT": "F", "NAME_GERM": "Angola", "FID": "AO"}, "id": "AO"}, {"type": "Feature", "geometry": {"type": "Point", "coordinates": [22.8986, -79.9284]}, "properties": {"CNTR_ID": "AQ", "CNTR_NAME": "Antarctica", "NAME_ENGL": "Antarctica", "NAME_FREN": "Antarctique", "ISO3_CODE": "ATA", "SVRG_UN": "Sovereignty unsettled", "CAPT": null, "EU_STAT": "F", "EFTA_STAT": "F", "CC_STAT": "F", "NAME_GERM": "Antarktis", "FID": "AQ"}, "id": "AQ"}, {"type": "Feature", "geometry": {"type": "Point", "coordinates": [-63.5885, -31.5807]}, "properties": {"CNTR_ID": "AR", "CNTR_NAME": "Argentina", "NAME_ENGL": "Argentina", "NAME_FREN": "Argentine", "ISO3_CODE": "ARG", "SVRG_UN": "UN Member State", "CAPT": "Buenos Aires", "EU_STAT": "F", "EFTA_STAT": "F", "CC_STAT": "F", "NAME_GERM": "Argentinien", "FID": "AR"}, "id": "AR"}, {"type": "Feature", "geometry": {"type": "Point", "coordinates": [-170.7284, -14.304]}, "properties": {"CNTR_ID": "AS", "CNTR_NAME": "American Samoa-Sāmoa Amelika", "NAME_ENGL": "American Samoa", "NAME_FREN": "Samoa américaines", "ISO3_CODE": "ASM", "SVRG_UN": "US Non-Self-Governing Territory", "CAPT": "Pago Pago", "EU_STAT": "F", "EFTA_STAT": "F", "CC_STAT": "F", "NAME_GERM": "Amerikanisch-Samoa", "FID": "AS"}, "id": "AS"}, {"type": "Feature", "geometry": {"type": "Point", "coordinates": [14.1373, 47.5847]}, "properties": {"CNTR_ID": "AT", "CNTR_NAME": "Österreich", "NAME_ENGL": "Austria", "NAME_FREN": "Autriche", "ISO3_CODE": "AUT", "SVRG_UN": "UN Member State", "CAPT": "Vienna", "EU_STAT": "T", "EFTA_STAT": "F", "CC_STAT": "F", "NAME_GERM": "Österreich", "FID": "AT"}, "id": "AT"}, {"type": "Feature", "geometry": {"type": "Point", "coordinates": [134.3612, -25.5817]}, "properties": {"CNTR_ID": "AU", "CNTR_NAME": "Australia", "NAME_ENGL": "Australia", "NAME_FREN": "Australie", "ISO3_CODE": "AUS", "SVRG_UN": "UN Member State", "CAPT": "Canberra", "EU_STAT": "F", "EFTA_STAT": "F", "CC_STAT": "F", "NAME_GERM": "Australien", "FID": "AU"}, "id": "AU"}, {"type": "Feature", "geometry": {"type": "Point", "coordinates": [-69.9809, 12.5249]}, "properties": {"CNTR_ID": "AW", "CNTR_NAME": "Aruba-Aruba", "NAME_ENGL": "Aruba", "NAME_FREN": "Aruba", "ISO3_CODE": "ABW", "SVRG_UN": "NL Self-Governing Territory", "CAPT": "Oranjestad", "EU_STAT": "F", "EFTA_STAT": "F", "CC_STAT": "F", "NAME_GERM": "Aruba", "FID": "AW"}, "id": "AW"}, {"type": "Feature", "geometry": {"type": "Point", "coordinates": [47.6875, 40.3449]}, "properties": {"CNTR_ID": "AZ", "CNTR_NAME": "Azərbaycan", "NAME_ENGL": "Azerbaijan", "NAME_FREN": "Azerbaïdjan", "ISO3_CODE": "AZE", "SVRG_UN": "UN Member State", "CAPT": "Baku", "EU_STAT": "F", "EFTA_STAT": "F", "CC_STAT": "F", "NAME_GERM": "Aserbaidschan", "FID": "AZ"}, "id": "AZ"}, {"type": "Feature", "geometry": {"type": "Point", "coordinates": [17.7899, 44.1624]}, "properties": {"CNTR_ID": "BA", "CNTR_NAME": "Bosna I Hercegovina-Bosna I Hercegovina-Босна И Херцеговина", "NAME_ENGL": "Bosnia and Herzegovina", "NAME_FREN": "Bosnie-et-Herzégovine", "ISO3_CODE": "BIH", "SVRG_UN": "UN Member State", "CAPT": "Sarajevo", "EU_STAT": "F", "EFTA_STAT": "F", "CC_STAT": "F", "NAME_GERM": "Bosnien und Herzegowina", "FID": "BA"}, "id": "BA"}, {"type": "Feature", "geometry": {"type": "Point", "coordinates": [-59.5555, 13.167]}, "properties": {"CNTR_ID": "BB", "CNTR_NAME": "Barbados", "NAME_ENGL": "Barbados", "NAME_FREN": "Barbade", "ISO3_CODE": "BRB", "SVRG_UN": "UN Member State", "CAPT": "Bridgetown", "EU_STAT": "F", "EFTA_STAT": "F", "CC_STAT": "F", "NAME_GERM": "Barbados", "FID": "BB"}, "id": "BB"}, {"type": "Feature", "geometry": {"type": "Point", "coordinates": [90.2518, 23.8479]}, "properties": {"CNTR_ID": "BD", "CNTR_NAME": "People’S Republic of Bangladesh", "NAME_ENGL": "Bangladesh", "NAME_FREN": "Bangladesh", "ISO3_CODE": "BGD", "SVRG_UN": "UN Member State", "CAPT": "Dhaka", "EU_STAT": "F", "EFTA_STAT": "F", "CC_STAT": "F", "NAME_GERM": "Bangladesch", "FID": "BD"}, "id": "BD"}, {"type": "Feature", "geometry": {"type": "Point", "coordinates": [4.6593, 50.6429]}, "properties": {"CNTR_ID": "BE", "CNTR_NAME": "Belgien-Belgique-België", "NAME_ENGL": "Belgium", "NAME_FREN": "Belgique", "ISO3_CODE": "BEL", "SVRG_UN": "UN Member State", "CAPT": "Brussels", "EU_STAT": "T", "EFTA_STAT": "F", "CC_STAT": "F", "NAME_GERM": "Belgien", "FID": "BE"}, "id": "BE"}, {"type": "Feature", "geometry": {"type": "Point", "coordinates": [-1.7352, 12.2722]}, "properties": {"CNTR_ID": "BF", "CNTR_NAME": "Burkina Faso", "NAME_ENGL": "Burkina Faso", "NAME_FREN": "Burkina", "ISO3_CODE": "BFA", "SVRG_UN": "UN Member State", "CAPT": "Ouagadougou", "EU_STAT": "F", "EFTA_STAT": "F", "CC_STAT": "F", "NAME_GERM": "Burkina Faso", "FID": "BF"}, "id": "BF"}, {"type": "Feature", "geometry": {"type": "Point", "coordinates": [25.235, 42.7546]}, "properties": {"CNTR_ID": "BG", "CNTR_NAME": "България", "NAME_ENGL": "Bulgaria", "NAME_FREN": "Bulgarie", "ISO3_CODE": "BGR", "SVRG_UN": "UN Member State", "CAPT": "Sofia", "EU_STAT": "T", "EFTA_STAT": "F", "CC_STAT": "F", "NAME_GERM": "Bulgarien", "FID": "BG"}, "id": "BG"}, {"type": "Feature", "geometry": {"type": "Point", "coordinates": [50.5474, 26.0546]}, "properties": {"CNTR_ID": "BH", "CNTR_NAME": "مملكة البحرين", "NAME_ENGL": "Bahrain", "NAME_FREN": "Bahreïn", "ISO3_CODE": "BHR", "SVRG_UN": "UN Member State", "CAPT": "Manama", "EU_STAT": "F", "EFTA_STAT": "F", "CC_STAT": "F", "NAME_GERM": "Bahrain", "FID": "BH"}, "id": "BH"}, {"type": "Feature", "geometry": {"type": "Point", "coordinates": [29.8912, -3.3741]}, "properties": {"CNTR_ID": "BI", "CNTR_NAME": "Burundi-Burundi", "NAME_ENGL": "Burundi", "NAME_FREN": "Burundi", "ISO3_CODE": "BDI", "SVRG_UN": "UN Member State", "CAPT": "Gitega", "EU_STAT": "F", "EFTA_STAT": "F", "CC_STAT": "F", "NAME_GERM": "Burundi", "FID": "BI"}, "id": "BI"}, {"type": "Feature", "geometry": {"type": "Point", "coordinates": [2.3384, 9.6486]}, "properties": {"CNTR_ID": "BJ", "CNTR_NAME": "Bénin", "NAME_ENGL": "Benin", "NAME_FREN": "Bénin", "ISO3_CODE": "BEN", "SVRG_UN": "UN Member State", "CAPT": "Porto-Novo (constitutional)", "EU_STAT": "F", "EFTA_STAT": "F", "CC_STAT": "F", "NAME_GERM": "Benin", "FID": "BJ"}, "id": "BJ"}, {"type": "Feature", "geometry": {"type": "Point", "coordinates": [-62.822, 17.8973]}, "properties": {"CNTR_ID": "BL", "CNTR_NAME": "Saint-Barthélemy", "NAME_ENGL": "Saint Barthélemy", "NAME_FREN": "Saint-Barthélemy", "ISO3_CODE": "BLM", "SVRG_UN": "FR Territory", "CAPT": "Gustavia", "EU_STAT": "F", "EFTA_STAT": "F", "CC_STAT": "F", "NAME_GERM": "St. Barthélemy", "FID": "BL"}, "id": "BL"}, {"type": "Feature", "geometry": {"type": "Point", "coordinates": [-64.7663, 32.2994]}, "properties": {"CNTR_ID": "BM", "CNTR_NAME": "Bermuda", "NAME_ENGL": "Bermuda", "NAME_FREN": "Bermudes", "ISO3_CODE": "BMU", "SVRG_UN": "UK Non-Self-Governing Territory", "CAPT": "Hamilton", "EU_STAT": "F", "EFTA_STAT": "F", "CC_STAT": "F", "NAME_GERM": "Bermuda", "FID": "BM"}, "id": "BM"}, {"type": "Feature", "geometry": {"type": "Point", "coordinates": [114.6023, 4.5553]}, "properties": {"CNTR_ID": "BN", "CNTR_NAME": "Brunei", "NAME_ENGL": "Brunei", "NAME_FREN": "Brunei", "ISO3_CODE": "BRN", "SVRG_UN": "UN Member State", "CAPT": "Bandar Seri Begawan", "EU_STAT": "F", "EFTA_STAT": "F", "CC_STAT": "F", "NAME_GERM": "Brunei", "FID": "BN"}, "id": "BN"}, {"type": "Feature", "geometry": {"type": "Point", "coordinates": [-64.6743, -16.7156]}, "properties": {"CNTR_ID": "BO", "CNTR_NAME": "Wuliwya-Volívia-Bulivya-Bolivia", "NAME_ENGL": "Bolivia", "NAME_FREN": "Bolivie", "ISO3_CODE": "BOL", "SVRG_UN": "UN Member State", "CAPT": "La Paz  (adm.)", "EU_STAT": "F", "EFTA_STAT": "F", "CC_STAT": "F", "NAME_GERM": "Bolivien", "FID": "BO"}, "id": "BO"}, {"type": "Feature", "geometry": {"type": "Point", "coordinates": [-68.3079, 12.227]}, "properties": {"CNTR_ID": "BQ", "CNTR_NAME": "Bonaire, Sint Eustatius and Saba", "NAME_ENGL": "Bonaire, Sint Eustatius and Saba", "NAME_FREN": "Bonaire, Saint-Eustache et Saba", "ISO3_CODE": "BES", "SVRG_UN": "NL Non-Self-Governing Territory", "CAPT": null, "EU_STAT": "F", "EFTA_STAT": "F", "CC_STAT": "F", "NAME_GERM": "Bonaire, Sint Eustatius und Saba", "FID": "BQ"}, "id": "BQ"}, {"type": "Feature", "geometry": {"type": "Point", "coordinates": [-53.0849, -10.7672]}, "properties": {"CNTR_ID": "BR", "CNTR_NAME": "Brasil", "NAME_ENGL": "Brazil", "NAME_FREN": "Brésil", "ISO3_CODE": "BRA", "SVRG_UN": "UN Member State", "CAPT": "Brasília", "EU_STAT": "F", "EFTA_STAT": "F", "CC_STAT": "F", "NAME_GERM": "Brasilien", "FID": "BR"}, "id": "BR"}, {"type": "Feature", "geometry": {"type": "Point", "coordinates": [90.4666, 27.383]}, "properties": {"CNTR_ID": "BT", "CNTR_NAME": "Kingdom of Bhutan", "NAME_ENGL": "Bhutan", "NAME_FREN": "Bhoutan", "ISO3_CODE": "BTN", "SVRG_UN": "UN Member State", "CAPT": "Thimphu", "EU_STAT": "F", "EFTA_STAT": "F", "CC_STAT": "F", "NAME_GERM": "Bhutan", "FID": "BT"}, "id": "BT"}, {"type": "Feature", "geometry": {"type": "Point", "coordinates": [3.3671, -54.4229]}, "properties": {"CNTR_ID": "BV", "CNTR_NAME": "Bouvetøya", "NAME_ENGL": "Bouvet Island", "NAME_FREN": "Île Bouvet", "ISO3_CODE": "BVT", "SVRG_UN": "NO Territory", "CAPT": null, "EU_STAT": "F", "EFTA_STAT": "F", "CC_STAT": "F", "NAME_GERM": "Bouvetinsel", "FID": "BV"}, "id": "BV"}, {"type": "Feature", "geometry": {"type": "Point", "coordinates": [23.8028, -22.1802]}, "properties": {"CNTR_ID": "BW", "CNTR_NAME": "Botswana-Botswana", "NAME_ENGL": "Botswana", "NAME_FREN": "Botswana", "ISO3_CODE": "BWA", "SVRG_UN": "UN Member State", "CAPT": "Gaborone", "EU_STAT": "F", "EFTA_STAT": "F", "CC_STAT": "F", "NAME_GERM": "Botsuana", "FID": "BW"}, "id": "BW"}, {"type": "Feature", "geometry": {"type": "Point", "coordinates": [28.0284, 53.5308]}, "properties": {"CNTR_ID": "BY", "CNTR_NAME": "Беларусь", "NAME_ENGL": "Belarus", "NAME_FREN": "Biélorussie", "ISO3_CODE": "BLR", "SVRG_UN": "UN Member State", "CAPT": "Minsk", "EU_STAT": "F", "EFTA_STAT": "F", "CC_STAT": "F", "NAME_GERM": "Belarus", "FID": "BY"}, "id": "BY"}, {"type": "Feature", "geometry": {"type": "Point", "coordinates": [-88.7141, 17.1903]}, "properties": {"CNTR_ID": "BZ", "CNTR_NAME": "Belize", "NAME_ENGL": "Belize", "NAME_FREN": "Belize", "ISO3_CODE": "BLZ", "SVRG_UN": "UN Member State", "CAPT": "Belmopan", "EU_STAT": "F", "EFTA_STAT": "F", "CC_STAT": "F", "NAME_GERM": "Belize", "FID": "BZ"}, "id": "BZ"}, {"type": "Feature", "geometry": {"type": "Point", "coordinates": [-101.8126, 57.6978]}, "properties": {"CNTR_ID": "CA", "CNTR_NAME": "Canada-Canada", "NAME_ENGL": "Canada", "NAME_FREN": "Canada", "ISO3_CODE": "CAN", "SVRG_UN": "UN Member State", "CAPT": "Ottawa", "EU_STAT": "F", "EFTA_STAT": "F", "CC_STAT": "F", "NAME_GERM": "Kanada", "FID": "CA"}, "id": "CA"}, {"type": "Feature", "geometry": {"type": "Point", "coordinates": [23.6559, -2.8703]}, "properties": {"CNTR_ID": "CD", "CNTR_NAME": "République Démocratique du Congo-Kongo-Kongó-Kongu-Kongo", "NAME_ENGL": "Democratic Republic of The Congo", "NAME_FREN": "République démocratique du Congo", "ISO3_CODE": "COD", "SVRG_UN": "UN Member State", "CAPT": "Kinshasa", "EU_STAT": "F", "EFTA_STAT": "F", "CC_STAT": "F", "NAME_GERM": "Demokratische Republik Kongo", "FID": "CD"}, "id": "CD"}, {"type": "Feature", "geometry": {"type": "Point", "coordinates": [20.9507, 7.0012]}, "properties": {"CNTR_ID": "CF", "CNTR_NAME": "République Centrafricaine-Ködörösêse Tî Bêafrîka", "NAME_ENGL": "Central African Republic", "NAME_FREN": "République centrafricaine", "ISO3_CODE": "CAF", "SVRG_UN": "UN Member State", "CAPT": "Bangui", "EU_STAT": "F", "EFTA_STAT": "F", "CC_STAT": "F", "NAME_GERM": "Zentralafrikanische Republik", "FID": "CF"}, "id": "CF"}, {"type": "Feature", "geometry": {"type": "Point", "coordinates": [15.2674, -0.839]}, "properties": {"CNTR_ID": "CG", "CNTR_NAME": "Congo-Kongo-Kongó", "NAME_ENGL": "Congo", "NAME_FREN": "Congo", "ISO3_CODE": "COG", "SVRG_UN": "UN Member State", "CAPT": "Brazzaville", "EU_STAT": "F", "EFTA_STAT": "F", "CC_STAT": "F", "NAME_GERM": "Kongo", "FID": "CG"}, "id": "CG"}, {"type": "Feature", "geometry": {"type": "Point", "coordinates": [8.2129, 46.9548]}, "properties": {"CNTR_ID": "CH", "CNTR_NAME": "Schweiz-Suisse-Svizzera-Svizra", "NAME_ENGL": "Switzerland", "NAME_FREN": "Suisse", "ISO3_CODE": "CHE", "SVRG_UN": "UN Member State", "CAPT": "Bern", "EU_STAT": "F", "EFTA_STAT": "T", "CC_STAT": "F", "NAME_GERM": "Schweiz", "FID": "CH"}, "id": "CH"}, {"type": "Feature", "geometry": {"type": "Point", "coordinates": [-5.5466, 7.6188]}, "properties": {"CNTR_ID": "CI", "CNTR_NAME": "Côte D’Ivoire", "NAME_ENGL": "Côte D’Ivoire", "NAME_FREN": "Côte d’Ivoire", "ISO3_CODE": "CIV", "SVRG_UN": "UN Member State", "CAPT": "Yamoussoukro", "EU_STAT": "F", "EFTA_STAT": "F", "CC_STAT": "F", "NAME_GERM": "Côte d’Ivoire", "FID": "CI"}, "id": "CI"}, {"type": "Feature", "geometry": {"type": "Point", "coordinates": [-69.1554, -22.9087]}, "properties": {"CNTR_ID": "CL", "CNTR_NAME": "Chile", "NAME_ENGL": "Chile", "NAME_FREN": "Chili", "ISO3_CODE": "CHL", "SVRG_UN": "UN Member State", "CAPT": "Santiago", "EU_STAT": "F", "EFTA_STAT": "F", "CC_STAT": "F", "NAME_GERM": "Chile", "FID": "CL"}, "id": "CL"}, {"type": "Feature", "geometry": {"type": "Point", "coordinates": [12.7363, 5.6658]}, "properties": {"CNTR_ID": "CM", "CNTR_NAME": "Cameroon-Cameroun", "NAME_ENGL": "Cameroon", "NAME_FREN": "Cameroun", "ISO3_CODE": "CMR", "SVRG_UN": "UN Member State", "CAPT": "Yaoundé", "EU_STAT": "F", "EFTA_STAT": "F", "CC_STAT": "F", "NAME_GERM": "Kamerun", "FID": "CM"}, "id": "CM"}, {"type": "Feature", "geometry": {"type": "Point", "coordinates": [104.1494, 32.3102]}, "properties": {"CNTR_ID": "CN", "CNTR_NAME": "中國", "NAME_ENGL": "China", "NAME_FREN": "Chine", "ISO3_CODE": "CHN", "SVRG_UN": "UN Member State", "CAPT": "Beijing", "EU_STAT": "F", "EFTA_STAT": "F", "CC_STAT": "F", "NAME_GERM": "China", "FID": "CN"}, "id": "CN"}, {"type": "Feature", "geometry": {"type": "Point", "coordinates": [-73.0781, 3.8983]}, "properties": {"CNTR_ID": "CO", "CNTR_NAME": "Colombia", "NAME_ENGL": "Colombia", "NAME_FREN": "Colombie", "ISO3_CODE": "COL", "SVRG_UN": "UN Member State", "CAPT": "Bogotá", "EU_STAT": "F", "EFTA_STAT": "F", "CC_STAT": "F", "NAME_GERM": "Kolumbien", "FID": "CO"}, "id": "CO"}, {"type": "Feature", "geometry": {"type": "Point", "coordinates": [-109.2175, 10.3037]}, "properties": {"CNTR_ID": "CP", "CNTR_NAME": "Île Clipperton", "NAME_ENGL": "Clipperton Island", "NAME_FREN": "Île Clipperton", "ISO3_CODE": "CPT", "SVRG_UN": "FR Territory", "CAPT": null, "EU_STAT": "F", "EFTA_STAT": "F", "CC_STAT": "F", "NAME_GERM": "Clipperton Insel", "FID": "CP"}, "id": "CP"}, {"type": "Feature", "geometry": {"type": "Point", "coordinates": [-84.1701, 9.9959]}, "properties": {"CNTR_ID": "CR", "CNTR_NAME": "Costa Rica", "NAME_ENGL": "Costa Rica", "NAME_FREN": "Costa Rica", "ISO3_CODE": "CRI", "SVRG_UN": "UN Member State", "CAPT": "San José", "EU_STAT": "F", "EFTA_STAT": "F", "CC_STAT": "F", "NAME_GERM": "Costa Rica", "FID": "CR"}, "id": "CR"}, {"type": "Feature", "geometry": {"type": "Point", "coordinates": [-79.3227, 21.9946]}, "properties": {"CNTR_ID": "CU", "CNTR_NAME": "Cuba", "NAME_ENGL": "Cuba", "NAME_FREN": "Cuba", "ISO3_CODE": "CUB", "SVRG_UN": "UN Member State", "CAPT": "Havana", "EU_STAT": "F", "EFTA_STAT": "F", "CC_STAT": "F", "NAME_GERM": "Kuba", "FID": "CU"}, "id": "CU"}, {"type": "Feature", "geometry": {"type": "Point", "coordinates": [-68.875, 12.1191]}, "properties": {"CNTR_ID": "CW", "CNTR_NAME": "Curaçao", "NAME_ENGL": "Curaçao", "NAME_FREN": "Curaçao", "ISO3_CODE": "CUW", "SVRG_UN": "NL Self-Governing Territory", "CAPT": "Willemstad", "EU_STAT": "F", "EFTA_STAT": "F", "CC_STAT": "F", "NAME_GERM": "Curaçao", "FID": "CW"}, "id": "CW"}, {"type": "Feature", "geometry": {"type": "Point", "coordinates": [105.6473, -10.4806]}, "properties": {"CNTR_ID": "CX", "CNTR_NAME": "Christmas Island", "NAME_ENGL": "Christmas Island", "NAME_FREN": "Île Christmas", "ISO3_CODE": "CXR", "SVRG_UN": "AU Territory", "CAPT": "The Settlement", "EU_STAT": "F", "EFTA_STAT": "F", "CC_STAT": "F", "NAME_GERM": "Weihnachtsinsel", "FID": "CX"}, "id": "CX"}, {"type": "Feature", "geometry": {"type": "Point", "coordinates": [33.1739, 35.0284]}, "properties": {"CNTR_ID": "CY", "CNTR_NAME": "Κύπρος-Kıbrıs", "NAME_ENGL": "Cyprus", "NAME_FREN": "Chypre", "ISO3_CODE": "CYP", "SVRG_UN": "UN Member State", "CAPT": "Nicosia", "EU_STAT": "T", "EFTA_STAT": "F", "CC_STAT": "F", "NAME_GERM": "Zypern", "FID": "CY"}, "id": "CY"}, {"type": "Feature", "geometry": {"type": "Point", "coordinates": [15.3276, 49.7382]}, "properties": {"CNTR_ID": "CZ", "CNTR_NAME": "Česká Republika", "NAME_ENGL": "Czechia", "NAME_FREN": "Tchéquie", "ISO3_CODE": "CZE", "SVRG_UN": "UN Member State", "CAPT": "Prague", "EU_STAT": "T", "EFTA_STAT": "F", "CC_STAT": "F", "NAME_GERM": "Tschechien", "FID": "CZ"}, "id": "CZ"}, {"type": "Feature", "geometry": {"type": "Point", "coordinates": [10.3767, 51.0771]}, "properties": {"CNTR_ID": "DE", "CNTR_NAME": "Deutschland", "NAME_ENGL": "Germany", "NAME_FREN": "Allemagne", "ISO3_CODE": "DEU", "SVRG_UN": "UN Member State", "CAPT": "Berlin", "EU_STAT": "T", "EFTA_STAT": "F", "CC_STAT": "F", "NAME_GERM": "Deutschland", "FID": "DE"}, "id": "DE"}, {"type": "Feature", "geometry": {"type": "Point", "coordinates": [42.2053, 11.6033]}, "properties": {"CNTR_ID": "DJ", "CNTR_NAME": "جيبوتي-Djibouti-Jabuuti", "NAME_ENGL": "Djibouti", "NAME_FREN": "Djibouti", "ISO3_CODE": "DJI", "SVRG_UN": "UN Member State", "CAPT": "Djibouti", "EU_STAT": "F", "EFTA_STAT": "F", "CC_STAT": "F", "NAME_GERM": "Dschibuti", "FID": "DJ"}, "id": "DJ"}, {"type": "Feature", "geometry": {"type": "Point", "coordinates": [9.3193, 56.0271]}, "properties": {"CNTR_ID": "DK", "CNTR_NAME": "Danmark", "NAME_ENGL": "Denmark", "NAME_FREN": "Danemark", "ISO3_CODE": "DNK", "SVRG_UN": "UN Member State", "CAPT": "Copenhagen", "EU_STAT": "T", "EFTA_STAT": "F", "CC_STAT": "F", "NAME_GERM": "Dänemark", "FID": "DK"}, "id": "DK"}, {"type": "Feature", "geometry": {"type": "Point", "coordinates": [-61.3474, 15.4111]}, "properties": {"CNTR_ID": "DM", "CNTR_NAME": "Dominica-Dominique", "NAME_ENGL": "Dominica", "NAME_FREN": "Dominique", "ISO3_CODE": "DMA", "SVRG_UN": "UN Member State", "CAPT": "Roseau", "EU_STAT": "F", "EFTA_STAT": "F", "CC_STAT": "F", "NAME_GERM": "Dominica", "FID": "DM"}, "id": "DM"}, {"type": "Feature", "geometry": {"type": "Point", "coordinates": [-70.5106, 18.9012]}, "properties": {"CNTR_ID": "DO", "CNTR_NAME": "República Dominicana", "NAME_ENGL": "Dominican Republic", "NAME_FREN": "République dominicaine", "ISO3_CODE": "DOM", "SVRG_UN": "UN Member State", "CAPT": "Santo Domingo", "EU_STAT": "F", "EFTA_STAT": "F", "CC_STAT": "F", "NAME_GERM": "Dominikanische Republik", "FID": "DO"}, "id": "DO"}, {"type": "Feature", "geometry": {"type": "Point", "coordinates": [2.6825, 28.1467]}, "properties": {"CNTR_ID": "DZ", "CNTR_NAME": "الجزائر", "NAME_ENGL": "Algeria", "NAME_FREN": "Algérie", "ISO3_CODE": "DZA", "SVRG_UN": "UN Member State", "CAPT": "Algiers", "EU_STAT": "F", "EFTA_STAT": "F", "CC_STAT": "F", "NAME_GERM": "Algerien", "FID": "DZ"}, "id": "DZ"}, {"type": "Feature", "geometry": {"type": "Point", "coordinates": [-78.3577, -1.4201]}, "properties": {"CNTR_ID": "EC", "CNTR_NAME": "Ikwadur-Ecuador", "NAME_ENGL": "Ecuador", "NAME_FREN": "Équateur", "ISO3_CODE": "ECU", "SVRG_UN": "UN Member State", "CAPT": "Quito", "EU_STAT": "F", "EFTA_STAT": "F", "CC_STAT": "F", "NAME_GERM": "Ecuador", "FID": "EC"}, "id": "EC"}, {"type": "Feature", "geometry": {"type": "Point", "coordinates": [25.8548, 58.6709]}, "properties": {"CNTR_ID": "EE", "CNTR_NAME": "Eesti", "NAME_ENGL": "Estonia", "NAME_FREN": "Estonie", "ISO3_CODE": "EST", "SVRG_UN": "UN Member State", "CAPT": "Tallinn", "EU_STAT": "T", "EFTA_STAT": "F", "CC_STAT": "F", "NAME_GERM": "Estland", "FID": "EE"}, "id": "EE"}, {"type": "Feature", "geometry": {"type": "Point", "coordinates": [29.759, 26.5649]}, "properties": {"CNTR_ID": "EG", "CNTR_NAME": "مصر", "NAME_ENGL": "Egypt", "NAME_FREN": "Égypte", "ISO3_CODE": "EGY", "SVRG_UN": "UN Member State", "CAPT": "Cairo", "EU_STAT": "F", "EFTA_STAT": "F", "CC_STAT": "F", "NAME_GERM": "Ägypten", "FID": "EG"}, "id": "EG"}, {"type": "Feature", "geometry": {"type": "Point", "coordinates": [-13.1416, 24.6678]}, "properties": {"CNTR_ID": "EH", "CNTR_NAME": "الصحراء الغربية", "NAME_ENGL": "Western Sahara", "NAME_FREN": "Sahara occidental", "ISO3_CODE": "ESH", "SVRG_UN": "Non-Self-Governing Territory", "CAPT": "Laayoune", "EU_STAT": "F", "EFTA_STAT": "F", "CC_STAT": "F", "NAME_GERM": "Westsahara", "FID": "EH"}, "id": "EH"}, {"type": "Feature", "geometry": {"type": "Point", "coordinates": [22.5402, 39.4982]}, "properties": {"CNTR_ID": "EL", "CNTR_NAME": "Ελλάδα", "NAME_ENGL": "Greece", "NAME_FREN": "Grèce", "ISO3_CODE": "GRC", "SVRG_UN": "UN Member State", "CAPT": "Athens", "EU_STAT": "T", "EFTA_STAT": "F", "CC_STAT": "F", "NAME_GERM": "Griechenland", "FID": "EL"}, "id": "EL"}, {"type": "Feature", "geometry": {"type": "Point", "coordinates": [38.132, 16.1236]}, "properties": {"CNTR_ID": "ER", "CNTR_NAME": "إريتريا-Eritrea-ኤርትራ", "NAME_ENGL": "Eritrea", "NAME_FREN": "Érythrée", "ISO3_CODE": "ERI", "SVRG_UN": "UN Member State", "CAPT": "Asmara", "EU_STAT": "F", "EFTA_STAT": "F", "CC_STAT": "F", "NAME_GERM": "Eritrea", "FID": "ER"}, "id": "ER"}, {"type": "Feature", "geometry": {"type": "Point", "coordinates": [-3.5521, 40.3816]}, "properties": {"CNTR_ID": "ES", "CNTR_NAME": "España", "NAME_ENGL": "Spain", "NAME_FREN": "Espagne", "ISO3_CODE": "ESP", "SVRG_UN": "UN Member State", "CAPT": "Madrid", "EU_STAT": "T", "EFTA_STAT": "F", "CC_STAT": "F", "NAME_GERM": "Spanien", "FID": "ES"}, "id": "ES"}, {"type": "Feature", "geometry": {"type": "Point", "coordinates": [39.6403, 8.6307]}, "properties": {"CNTR_ID": "ET", "CNTR_NAME": "Federal Democratic Republic of Ethiopia", "NAME_ENGL": "Ethiopia", "NAME_FREN": "Éthiopie", "ISO3_CODE": "ETH", "SVRG_UN": "UN Member State", "CAPT": "Addis-Ababa", "EU_STAT": "F", "EFTA_STAT": "F", "CC_STAT": "F", "NAME_GERM": "Äthiopien", "FID": "ET"}, "id": "ET"}, {"type": "Feature", "geometry": {"type": "Point", "coordinates": [26.2795, 64.4974]}, "properties": {"CNTR_ID": "FI", "CNTR_NAME": "Suomi-Finland", "NAME_ENGL": "Finland", "NAME_FREN": "Finlande", "ISO3_CODE": "FIN", "SVRG_UN": "UN Member State", "CAPT": "Helsinki", "EU_STAT": "T", "EFTA_STAT": "F", "CC_STAT": "F", "NAME_GERM": "Finnland", "FID": "FI"}, "id": "FI"}, {"type": "Feature", "geometry": {"type": "Point", "coordinates": [177.9517, -17.8274]}, "properties": {"CNTR_ID": "FJ", "CNTR_NAME": "Fiji-Viti-फ़िजी", "NAME_ENGL": "Fiji", "NAME_FREN": "Fidji", "ISO3_CODE": "FJI", "SVRG_UN": "UN Member State", "CAPT": "Suva", "EU_STAT": "F", "EFTA_STAT": "F", "CC_STAT": "F", "NAME_GERM": "Fidschi", "FID": "FJ"}, "id": "FJ"}, {"type": "Feature", "geometry": {"type": "Point", "coordinates": [-58.7523, -51.7388]}, "properties": {"CNTR_ID": "FK", "CNTR_NAME": "Falkland Islands", "NAME_ENGL": "Falkland Islands", "NAME_FREN": "Îles Falkland", "ISO3_CODE": "FLK", "SVRG_UN": "UK Non-Self-Governing Territory", "CAPT": "Stanley", "EU_STAT": "F", "EFTA_STAT": "F", "CC_STAT": "F", "NAME_GERM": "Falklandinseln", "FID": "FK"}, "id": "FK"}, {"type": "Feature", "geometry": {"type": "Point", "coordinates": [158.2287, 6.8797]}, "properties": {"CNTR_ID": "FM", "CNTR_NAME": "Micronesia", "NAME_ENGL": "Micronesia", "NAME_FREN": "Micronésie", "ISO3_CODE": "FSM", "SVRG_UN": "UN Member State", "CAPT": "Palikir", "EU_STAT": "F", "EFTA_STAT": "F", "CC_STAT": "F", "NAME_GERM": "Mikronesien", "FID": "FM"}, "id": "FM"}, {"type": "Feature", "geometry": {"type": "Point", "coordinates": [-6.9815, 62.1202]}, "properties": {"CNTR_ID": "FO", "CNTR_NAME": "Færøerne-Føroyar", "NAME_ENGL": "Faroes", "NAME_FREN": "Îles Féroé", "ISO3_CODE": "FRO", "SVRG_UN": "DK Territory", "CAPT": "Tórshavn", "EU_STAT": "F", "EFTA_STAT": "F", "CC_STAT": "F", "NAME_GERM": "Färöer", "FID": "FO"}, "id": "FO"}, {"type": "Feature", "geometry": {"type": "Point", "coordinates": [2.5059, 46.6183]}, "properties": {"CNTR_ID": "FR", "CNTR_NAME": "France", "NAME_ENGL": "France", "NAME_FREN": "France", "ISO3_CODE": "FRA", "SVRG_UN": "UN Member State", "CAPT": "Paris", "EU_STAT": "T", "EFTA_STAT": "F", "CC_STAT": "F", "NAME_GERM": "Frankreich", "FID": "FR"}, "id": "FR"}, {"type": "Feature", "geometry": {"type": "Point", "coordinates": [11.7646, -0.6157]}, "properties": {"CNTR_ID": "GA", "CNTR_NAME": "Gabon", "NAME_ENGL": "Gabon", "NAME_FREN": "Gabon", "ISO3_CODE": "GAB", "SVRG_UN": "UN Member State", "CAPT": "Libreville", "EU_STAT": "F", "EFTA_STAT": "F", "CC_STAT": "F", "NAME_GERM": "Gabun", "FID": "GA"}, "id": "GA"}, {"type": "Feature", "geometry": {"type": "Point", "coordinates": [-61.6809, 12.1196]}, "properties": {"CNTR_ID": "GD", "CNTR_NAME": "Grenada", "NAME_ENGL": "Grenada", "NAME_FREN": "Grenade", "ISO3_CODE": "GRD", "SVRG_UN": "UN Member State", "CAPT": "Saint George's", "EU_STAT": "F", "EFTA_STAT": "F", "CC_STAT": "F", "NAME_GERM": "Grenada", "FID": "GD"}, "id": "GD"}, {"type": "Feature", "geometry": {"type": "Point", "coordinates": [43.2962, 42.0572]}, "properties": {"CNTR_ID": "GE", "CNTR_NAME": "საქართველო", "NAME_ENGL": "Georgia", "NAME_FREN": "Géorgie", "ISO3_CODE": "GEO", "SVRG_UN": "UN Member State", "CAPT": "Tbilisi", "EU_STAT": "F", "EFTA_STAT": "F", "CC_STAT": "F", "NAME_GERM": "Georgien", "FID": "GE"}, "id": "GE"}, {"type": "Feature", "geometry": {"type": "Point", "coordinates": [-2.5794, 49.456]}, "properties": {"CNTR_ID": "GG", "CNTR_NAME": "Guernsey-Guernesey", "NAME_ENGL": "Guernsey", "NAME_FREN": "Guernesey", "ISO3_CODE": "GGY", "SVRG_UN": "UK Territory", "CAPT": "St. Peter Port", "EU_STAT": "F", "EFTA_STAT": "F", "CC_STAT": "F", "NAME_GERM": "Guernsey", "FID": "GG"}, "id": "GG"}, {"type": "Feature", "geometry": {"type": "Point", "coordinates": [-1.1985, 7.9616]}, "properties": {"CNTR_ID": "GH", "CNTR_NAME": "Ghana", "NAME_ENGL": "Ghana", "NAME_FREN": "Ghana", "ISO3_CODE": "GHA", "SVRG_UN": "UN Member State", "CAPT": "Accra", "EU_STAT": "F", "EFTA_STAT": "F", "CC_STAT": "F", "NAME_GERM": "Ghana", "FID": "GH"}, "id": "GH"}, {"type": "Feature", "geometry": {"type": "Point", "coordinates": [-5.3461, 36.1432]}, "properties": {"CNTR_ID": "GI", "CNTR_NAME": "Gibraltar", "NAME_ENGL": "Gibraltar", "NAME_FREN": "Gibraltar", "ISO3_CODE": "GIB", "SVRG_UN": "UK Non-Self-Governing Territory", "CAPT": "Gibraltar", "EU_STAT": "F", "EFTA_STAT": "F", "CC_STAT": "F", "NAME_GERM": "Gibraltar", "FID": "GI"}, "id": "GI"}, {"type": "Feature", "geometry": {"type": "Point", "coordinates": [-41.388, 74.7663]}, "properties": {"CNTR_ID": "GL", "CNTR_NAME": "Grønland-Kalaallit Nunaat", "NAME_ENGL": "Greenland", "NAME_FREN": "Groenland", "ISO3_CODE": "GRL", "SVRG_UN": "DK Self-Governing Territory", "CAPT": "Nuuk", "EU_STAT": "F", "EFTA_STAT": "F", "CC_STAT": "F", "NAME_GERM": "Grönland", "FID": "GL"}, "id": "GL"}, {"type": "Feature", "geometry": {"type": "Point", "coordinates": [-16.0613, 13.3811]}, "properties": {"CNTR_ID": "GM", "CNTR_NAME": "Gambia", "NAME_ENGL": "Gambia", "NAME_FREN": "Gambie", "ISO3_CODE": "GMB", "SVRG_UN": "UN Member State", "CAPT": "Banjul", "EU_STAT": "F", "EFTA_STAT": "F", "CC_STAT": "F", "NAME_GERM": "Gambia", "FID": "GM"}, "id": "GM"}, {"type": "Feature", "geometry": {"type": "Point", "coordinates": [-11.3051, 11.0087]}, "properties": {"CNTR_ID": "GN", "CNTR_NAME": "Guinée", "NAME_ENGL": "Guinea", "NAME_FREN": "Guinée", "ISO3_CODE": "GIN", "SVRG_UN": "UN Member State", "CAPT": "Conakry", "EU_STAT": "F", "EFTA_STAT": "F", "CC_STAT": "F", "NAME_GERM": "Guinea", "FID": "GN"}, "id": "GN"}, {"type": "Feature", "geometry": {"type": "Point", "coordinates": [10.4688, 1.5921]}, "properties": {"CNTR_ID": "GQ", "CNTR_NAME": "Guinée Équatoriale-Guinea Ecuatorial", "NAME_ENGL": "Equatorial Guinea", "NAME_FREN": "Guinée équatoriale", "ISO3_CODE": "GNQ", "SVRG_UN": "UN Member State", "CAPT": "Malabo", "EU_STAT": "F", "EFTA_STAT": "F", "CC_STAT": "F", "NAME_GERM": "Äquatorialguinea", "FID": "GQ"}, "id": "GQ"}, {"type": "Feature", "geometry": {"type": "Point", "coordinates": [-36.2044, -54.6015]}, "properties": {"CNTR_ID": "GS", "CNTR_NAME": "South Georgia and The South Sandwich Islands", "NAME_ENGL": "South Georgia and The South Sandwich Islands", "NAME_FREN": "Îles Géorgie du Sud et Sandwich du Sud", "ISO3_CODE": "SGS", "SVRG_UN": "UK Territory", "CAPT": null, "EU_STAT": "F", "EFTA_STAT": "F", "CC_STAT": "F", "NAME_GERM": "Südgeorgien und die Südlichen Sandwichinseln", "FID": "GS"}, "id": "GS"}, {"type": "Feature", "geometry": {"type": "Point", "coordinates": [-91.2288, 15.0125]}, "properties": {"CNTR_ID": "GT", "CNTR_NAME": "Guatemala", "NAME_ENGL": "Guatemala", "NAME_FREN": "Guatemala", "ISO3_CODE": "GTM", "SVRG_UN": "UN Member State", "CAPT": "Guatemala", "EU_STAT": "F", "EFTA_STAT": "F", "CC_STAT": "F", "NAME_GERM": "Guatemala", "FID": "GT"}, "id": "GT"}, {"type": "Feature", "geometry": {"type": "Point", "coordinates": [144.717, 13.3633]}, "properties": {"CNTR_ID": "GU", "CNTR_NAME": "Guåhan-Guam", "NAME_ENGL": "Guam", "NAME_FREN": "Guam", "ISO3_CODE": "GUM", "SVRG_UN": "US Non-Self-Governing Territory", "CAPT": "Agana", "EU_STAT": "F", "EFTA_STAT": "F", "CC_STAT": "F", "NAME_GERM": "Guam", "FID": "GU"}, "id": "GU"}, {"type": "Feature", "geometry": {"type": "Point", "coordinates": [-14.4508, 12.1029]}, "properties": {"CNTR_ID": "GW", "CNTR_NAME": "Guiné-Bissau", "NAME_ENGL": "Guinea-Bissau", "NAME_FREN": "Guinée-Bissau", "ISO3_CODE": "GNB", "SVRG_UN": "UN Member State", "CAPT": "Bissau", "EU_STAT": "F", "EFTA_STAT": "F", "CC_STAT": "F", "NAME_GERM": "Guinea-Bissau", "FID": "GW"}, "id": "GW"}, {"type": "Feature", "geometry": {"type": "Point", "coordinates": [-58.9618, 4.803]}, "properties": {"CNTR_ID": "GY", "CNTR_NAME": "Guyana", "NAME_ENGL": "Guyana", "NAME_FREN": "Guyana", "ISO3_CODE": "GUY", "SVRG_UN": "UN Member State", "CAPT": "Georgetown", "EU_STAT": "F", "EFTA_STAT": "F", "CC_STAT": "F", "NAME_GERM": "Guyana", "FID": "GY"}, "id": "GY"}, {"type": "Feature", "geometry": {"type": "Point", "coordinates": [114.1142, 22.4349]}, "properties": {"CNTR_ID": "HK", "CNTR_NAME": "香港", "NAME_ENGL": "Hong Kong", "NAME_FREN": "Hong Kong", "ISO3_CODE": "HKG", "SVRG_UN": "CN Special Administrative Region", "CAPT": "Hong Kong", "EU_STAT": "F", "EFTA_STAT": "F", "CC_STAT": "F", "NAME_GERM": "Hongkong", "FID": "HK"}, "id": "HK"}, {"type": "Feature", "geometry": {"type": "Point", "coordinates": [73.5251, -53.1095]}, "properties": {"CNTR_ID": "HM", "CNTR_NAME": "Heard Island and Mcdonald Islands", "NAME_ENGL": "Heard Island and Mcdonald Islands", "NAME_FREN": "Îles Heard et McDonald", "ISO3_CODE": "HMD", "SVRG_UN": "AU Territory", "CAPT": null, "EU_STAT": "F", "EFTA_STAT": "F", "CC_STAT": "F", "NAME_GERM": "Heard und die McDonaldinseln", "FID": "HM"}, "id": "HM"}, {"type": "Feature", "geometry": {"type": "Point", "coordinates": [-86.6222, 14.8298]}, "properties": {"CNTR_ID": "HN", "CNTR_NAME": "Honduras", "NAME_ENGL": "Honduras", "NAME_FREN": "Honduras", "ISO3_CODE": "HND", "SVRG_UN": "UN Member State", "CAPT": "Tegucigalpa", "EU_STAT": "F", "EFTA_STAT": "F", "CC_STAT": "F", "NAME_GERM": "Honduras", "FID": "HN"}, "id": "HN"}, {"type": "Feature", "geometry": {"type": "Point", "coordinates": [16.4894, 43.756]}, "properties": {"CNTR_ID": "HR", "CNTR_NAME": "Hrvatska", "NAME_ENGL": "Croatia", "NAME_FREN": "Croatie", "ISO3_CODE": "HRV", "SVRG_UN": "UN Member State", "CAPT": "Zagreb", "EU_STAT": "T", "EFTA_STAT": "F", "CC_STAT": "F", "NAME_GERM": "Kroatien", "FID": "HR"}, "id": "HR"}, {"type": "Feature", "geometry": {"type": "Point", "coordinates": [-72.3646, 18.3858]}, "properties": {"CNTR_ID": "HT", "CNTR_NAME": "Haïti-Ayiti", "NAME_ENGL": "Haiti", "NAME_FREN": "Haïti", "ISO3_CODE": "HTI", "SVRG_UN": "UN Member State", "CAPT": "Port-au-Prince", "EU_STAT": "F", "EFTA_STAT": "F", "CC_STAT": "F", "NAME_GERM": "Haiti", "FID": "HT"}, "id": "HT"}, {"type": "Feature", "geometry": {"type": "Point", "coordinates": [19.4066, 47.1616]}, "properties": {"CNTR_ID": "HU", "CNTR_NAME": "Magyarország", "NAME_ENGL": "Hungary", "NAME_FREN": "Hongrie", "ISO3_CODE": "HUN", "SVRG_UN": "UN Member State", "CAPT": "Budapest", "EU_STAT": "T", "EFTA_STAT": "F", "CC_STAT": "F", "NAME_GERM": "Ungarn", "FID": "HU"}, "id": "HU"}, {"type": "Feature", "geometry": {"type": "Point", "coordinates": [-8.0902, 53.1794]}, "properties": {"CNTR_ID": "IE", "CNTR_NAME": "Ireland-Éire", "NAME_ENGL": "Ireland", "NAME_FREN": "Irlande", "ISO3_CODE": "IRL", "SVRG_UN": "UN Member State", "CAPT": "Dublin", "EU_STAT": "T", "EFTA_STAT": "F", "CC_STAT": "F", "NAME_GERM": "Irland", "FID": "IE"}, "id": "IE"}, {"type": "Feature", "geometry": {"type": "Point", "coordinates": [34.6195, 31.0661]}, "properties": {"CNTR_ID": "IL", "CNTR_NAME": "إسرائيل-ישראל", "NAME_ENGL": "Israel", "NAME_FREN": "Israël", "ISO3_CODE": "ISR", "SVRG_UN": "UN Member State", "CAPT": "Jerusalem (Disputed)", "EU_STAT": "F", "EFTA_STAT": "F", "CC_STAT": "F", "NAME_GERM": "Israel", "FID": "IL"}, "id": "IL"}, {"type": "Feature", "geometry": {"type": "Point", "coordinates": [-4.5444, 54.2285]}, "properties": {"CNTR_ID": "IM", "CNTR_NAME": "Isle of Man-Ellan Vannin", "NAME_ENGL": "Isle of Man", "NAME_FREN": "Île de Man", "ISO3_CODE": "IMN", "SVRG_UN": "UK territory", "CAPT": "Douglas", "EU_STAT": "F", "EFTA_STAT": "F", "CC_STAT": "F", "NAME_GERM": "Insel Man", "FID": "IM"}, "id": "IM"}, {"type": "Feature", "geometry": {"type": "Point", "coordinates": [79.4676, 22.349]}, "properties": {"CNTR_ID": "IN", "CNTR_NAME": "India-भारत", "NAME_ENGL": "India", "NAME_FREN": "Inde", "ISO3_CODE": "IND", "SVRG_UN": "UN Member State", "CAPT": "New Delhi", "EU_STAT": "F", "EFTA_STAT": "F", "CC_STAT": "F", "NAME_GERM": "Indien", "FID": "IN"}, "id": "IN"}, {"type": "Feature", "geometry": {"type": "Point", "coordinates": [72.4196, -7.3149]}, "properties": {"CNTR_ID": "IO", "CNTR_NAME": "British Indian Ocean Territory", "NAME_ENGL": "British Indian Ocean Territory", "NAME_FREN": "Territoire britannique de l’océan Indien", "ISO3_CODE": "IOT", "SVRG_UN": "UK Territory", "CAPT": null, "EU_STAT": "F", "EFTA_STAT": "F", "CC_STAT": "F", "NAME_GERM": "Britisches Territorium im Indischen Ozean", "FID": "IO"}, "id": "IO"}, {"type": "Feature", "geometry": {"type": "Point", "coordinates": [43.7557, 33.0425]}, "properties": {"CNTR_ID": "IQ", "CNTR_NAME": "العراق-Îraq", "NAME_ENGL": "Iraq", "NAME_FREN": "Iraq", "ISO3_CODE": "IRQ", "SVRG_UN": "UN Member State", "CAPT": "Baghdad", "EU_STAT": "F", "EFTA_STAT": "F", "CC_STAT": "F", "NAME_GERM": "Irak", "FID": "IQ"}, "id": "IQ"}, {"type": "Feature", "geometry": {"type": "Point", "coordinates": [54.3046, 32.5758]}, "properties": {"CNTR_ID": "IR", "CNTR_NAME": "ایران", "NAME_ENGL": "Iran", "NAME_FREN": "Iran", "ISO3_CODE": "IRN", "SVRG_UN": "UN Member State", "CAPT": "Tehran", "EU_STAT": "F", "EFTA_STAT": "F", "CC_STAT": "F", "NAME_GERM": "Iran", "FID": "IR"}, "id": "IR"}, {"type": "Feature", "geometry": {"type": "Point", "coordinates": [-18.8569, 64.756]}, "properties": {"CNTR_ID": "IS", "CNTR_NAME": "Ísland", "NAME_ENGL": "Iceland", "NAME_FREN": "Islande", "ISO3_CODE": "ISL", "SVRG_UN": "UN Member State", "CAPT": "Reykjavík", "EU_STAT": "F", "EFTA_STAT": "T", "CC_STAT": "F", "NAME_GERM": "Island", "FID": "IS"}, "id": "IS"}, {"type": "Feature", "geometry": {"type": "Point", "coordinates": [12.5322, 42.837]}, "properties": {"CNTR_ID": "IT", "CNTR_NAME": "Italia", "NAME_ENGL": "Italy", "NAME_FREN": "Italie", "ISO3_CODE": "ITA", "SVRG_UN": "UN Member State", "CAPT": "Rome", "EU_STAT": "T", "EFTA_STAT": "F", "CC_STAT": "F", "NAME_GERM": "Italien", "FID": "IT"}, "id": "IT"}, {"type": "Feature", "geometry": {"type": "Point", "coordinates": [-2.1302, 49.2236]}, "properties": {"CNTR_ID": "JE", "CNTR_NAME": "Jersey-Jersey", "NAME_ENGL": "Jersey", "NAME_FREN": "Jersey", "ISO3_CODE": "JEY", "SVRG_UN": "UK Territory", "CAPT": "St. Helier", "EU_STAT": "F", "EFTA_STAT": "F", "CC_STAT": "F", "NAME_GERM": "Jersey", "FID": "JE"}, "id": "JE"}, {"type": "Feature", "geometry": {"type": "Point", "coordinates": [-77.3447, 18.1775]}, "properties": {"CNTR_ID": "JM", "CNTR_NAME": "Jamaica", "NAME_ENGL": "Jamaica", "NAME_FREN": "Jamaïque", "ISO3_CODE": "JAM", "SVRG_UN": "UN Member State", "CAPT": "Kingston", "EU_STAT": "F", "EFTA_STAT": "F", "CC_STAT": "F", "NAME_GERM": "Jamaika", "FID": "JM"}, "id": "JM"}, {"type": "Feature", "geometry": {"type": "Point", "coordinates": [37.079, 30.6751]}, "properties": {"CNTR_ID": "JO", "CNTR_NAME": "الأردن", "NAME_ENGL": "Jordan", "NAME_FREN": "Jordanie", "ISO3_CODE": "JOR", "SVRG_UN": "UN Member State", "CAPT": "Amman", "EU_STAT": "F", "EFTA_STAT": "F", "CC_STAT": "F", "NAME_GERM": "Jordanien", "FID": "JO"}, "id": "JO"}, {"type": "Feature", "geometry": {"type": "Point", "coordinates": [139.1928, 36.6179]}, "properties": {"CNTR_ID": "JP", "CNTR_NAME": "日本", "NAME_ENGL": "Japan", "NAME_FREN": "Japon", "ISO3_CODE": "JPN", "SVRG_UN": "UN Member State", "CAPT": "Tokyo", "EU_STAT": "F", "EFTA_STAT": "F", "CC_STAT": "F", "NAME_GERM": "Japan", "FID": "JP"}, "id": "JP"}, {"type": "Feature", "geometry": {"type": "Point", "coordinates": [37.8606, 0.5355]}, "properties": {"CNTR_ID": "KE", "CNTR_NAME": "Kenya-Kenya", "NAME_ENGL": "Kenya", "NAME_FREN": "Kenya", "ISO3_CODE": "KEN", "SVRG_UN": "UN Member State", "CAPT": "Nairobi", "EU_STAT": "F", "EFTA_STAT": "F", "CC_STAT": "F", "NAME_GERM": "Kenia", "FID": "KE"}, "id": "KE"}, {"type": "Feature", "geometry": {"type": "Point", "coordinates": [74.5847, 41.4529]}, "properties": {"CNTR_ID": "KG", "CNTR_NAME": "Kırgızstan-Кыргызстан", "NAME_ENGL": "Kyrgyzstan", "NAME_FREN": "Kirghizstan", "ISO3_CODE": "KGZ", "SVRG_UN": "UN Member State", "CAPT": "Bishkek", "EU_STAT": "F", "EFTA_STAT": "F", "CC_STAT": "F", "NAME_GERM": "Kirgisistan", "FID": "KG"}, "id": "KG"}, {"type": "Feature", "geometry": {"type": "Point", "coordinates": [104.9152, 12.7146]}, "properties": {"CNTR_ID": "KH", "CNTR_NAME": "កម្ពុជា", "NAME_ENGL": "Cambodia", "NAME_FREN": "Cambodge", "ISO3_CODE": "KHM", "SVRG_UN": "UN Member State", "CAPT": "Phnom Penh", "EU_STAT": "F", "EFTA_STAT": "F", "CC_STAT": "F", "NAME_GERM": "Kambodscha", "FID": "KH"}, "id": "KH"}, {"type": "Feature", "geometry": {"type": "Point", "coordinates": [-157.4016, 1.8716]}, "properties": {"CNTR_ID": "KI", "CNTR_NAME": "Kiribati", "NAME_ENGL": "Kiribati", "NAME_FREN": "Kiribati", "ISO3_CODE": "KIR", "SVRG_UN": "UN Member State", "CAPT": "Tarawa", "EU_STAT": "F", "EFTA_STAT": "F", "CC_STAT": "F", "NAME_GERM": "Kiribati", "FID": "KI"}, "id": "KI"}, {"type": "Feature", "geometry": {"type": "Point", "coordinates": [43.3442, -11.6063]}, "properties": {"CNTR_ID": "KM", "CNTR_NAME": "جزر القمر-Comores-Komori", "NAME_ENGL": "Comoros", "NAME_FREN": "Comores", "ISO3_CODE": "COM", "SVRG_UN": "UN Member State", "CAPT": "Moroni", "EU_STAT": "F", "EFTA_STAT": "F", "CC_STAT": "F", "NAME_GERM": "Komoren", "FID": "KM"}, "id": "KM"}, {"type": "Feature", "geometry": {"type": "Point", "coordinates": [-62.7818, 17.3517]}, "properties": {"CNTR_ID": "KN", "CNTR_NAME": "Saint Kitts and Nevis", "NAME_ENGL": "Saint Kitts and Nevis", "NAME_FREN": "Saint-Christophe-et-Niévès", "ISO3_CODE": "KNA", "SVRG_UN": "UN Member State", "CAPT": "Basseterre", "EU_STAT": "F", "EFTA_STAT": "F", "CC_STAT": "F", "NAME_GERM": "St. Kitts und Nevis", "FID": "KN"}, "id": "KN"}, {"type": "Feature", "geometry": {"type": "Point", "coordinates": [127.1899, 40.1298]}, "properties": {"CNTR_ID": "KP", "CNTR_NAME": "조선민주주의인민공화국", "NAME_ENGL": "North Korea", "NAME_FREN": "Corée du Nord", "ISO3_CODE": "PRK", "SVRG_UN": "UN Member State", "CAPT": "Pyongyang", "EU_STAT": "F", "EFTA_STAT": "F", "CC_STAT": "F", "NAME_GERM": "Nordkorea", "FID": "KP"}, "id": "KP"}, {"type": "Feature", "geometry": {"type": "Point", "coordinates": [127.879, 36.467]}, "properties": {"CNTR_ID": "KR", "CNTR_NAME": "대한민국", "NAME_ENGL": "South Korea", "NAME_FREN": "Corée du Sud", "ISO3_CODE": "KOR", "SVRG_UN": "UN Member State", "CAPT": "Seoul", "EU_STAT": "F", "EFTA_STAT": "F", "CC_STAT": "F", "NAME_GERM": "Südkorea", "FID": "KR"}, "id": "KR"}, {"type": "Feature", "geometry": {"type": "Point", "coordinates": [47.4932, 29.4908]}, "properties": {"CNTR_ID": "KW", "CNTR_NAME": "الكويت", "NAME_ENGL": "Kuwait", "NAME_FREN": "Koweït", "ISO3_CODE": "KWT", "SVRG_UN": "UN Member State", "CAPT": "Kuwait", "EU_STAT": "F", "EFTA_STAT": "F", "CC_STAT": "F", "NAME_GERM": "Kuwait", "FID": "KW"}, "id": "KW"}, {"type": "Feature", "geometry": {"type": "Point", "coordinates": [-81.2119, 19.323]}, "properties": {"CNTR_ID": "KY", "CNTR_NAME": "Cayman Islands", "NAME_ENGL": "Cayman Islands", "NAME_FREN": "Îles Caïmans", "ISO3_CODE": "CYM", "SVRG_UN": "UK Non-Self-Governing Territory", "CAPT": "George Town", "EU_STAT": "F", "EFTA_STAT": "F", "CC_STAT": "F", "NAME_GERM": "Kaimaninseln", "FID": "KY"}, "id": "KY"}, {"type": "Feature", "geometry": {"type": "Point", "coordinates": [67.3115, 48.1522]}, "properties": {"CNTR_ID": "KZ", "CNTR_NAME": "Қазақстан", "NAME_ENGL": "Kazakhstan", "NAME_FREN": "Kazakhstan", "ISO3_CODE": "KAZ", "SVRG_UN": "UN Member State", "CAPT": "Nur-Sultan", "EU_STAT": "F", "EFTA_STAT": "F", "CC_STAT": "F", "NAME_GERM": "Kasachstan", "FID": "KZ"}, "id": "KZ"}, {"type": "Feature", "geometry": {"type": "Point", "coordinates": [101.9624, 20.2365]}, "properties": {"CNTR_ID": "LA", "CNTR_NAME": "ປະເທດລາວ", "NAME_ENGL": "Laos", "NAME_FREN": "Laos", "ISO3_CODE": "LAO", "SVRG_UN": "UN Member State", "CAPT": "Vientiane", "EU_STAT": "F", "EFTA_STAT": "F", "CC_STAT": "F", "NAME_GERM": "Laos", "FID": "LA"}, "id": "LA"}, {"type": "Feature", "geometry": {"type": "Point", "coordinates": [35.8942, 33.9289]}, "properties": {"CNTR_ID": "LB", "CNTR_NAME": "لبنان", "NAME_ENGL": "Lebanon", "NAME_FREN": "Liban", "ISO3_CODE": "LBN", "SVRG_UN": "UN Member State", "CAPT": "Beirut", "EU_STAT": "F", "EFTA_STAT": "F", "CC_STAT": "F", "NAME_GERM": "Libanon", "FID": "LB"}, "id": "LB"}, {"type": "Feature", "geometry": {"type": "Point", "coordinates": [-60.97, 13.8898]}, "properties": {"CNTR_ID": "LC", "CNTR_NAME": "Saint Lucia", "NAME_ENGL": "Saint Lucia", "NAME_FREN": "Sainte-Lucie", "ISO3_CODE": "LCA", "SVRG_UN": "UN Member State", "CAPT": "Castries", "EU_STAT": "F", "EFTA_STAT": "F", "CC_STAT": "F", "NAME_GERM": "St. Lucia", "FID": "LC"}, "id": "LC"}, {"type": "Feature", "geometry": {"type": "Point", "coordinates": [9.5534, 47.1383]}, "properties": {"CNTR_ID": "LI", "CNTR_NAME": "Liechtenstein", "NAME_ENGL": "Liechtenstein", "NAME_FREN": "Liechtenstein", "ISO3_CODE": "LIE", "SVRG_UN": "UN Member State", "CAPT": "Vaduz", "EU_STAT": "F", "EFTA_STAT": "T", "CC_STAT": "F", "NAME_GERM": "Liechtenstein", "FID": "LI"}, "id": "LI"}, {"type": "Feature", "geometry": {"type": "Point", "coordinates": [80.7079, 7.6065]}, "properties": {"CNTR_ID": "LK", "CNTR_NAME": "ශ්‍රී ලංකාව-இலங்கை", "NAME_ENGL": "Sri Lanka", "NAME_FREN": "Sri Lanka", "ISO3_CODE": "LKA", "SVRG_UN": "UN Member State", "CAPT": "Sri Jayewardenepura Kotte", "EU_STAT": "F", "EFTA_STAT": "F", "CC_STAT": "F", "NAME_GERM": "Sri Lanka", "FID": "LK"}, "id": "LK"}, {"type": "Feature", "geometry": {"type": "Point", "coordinates": [-9.3276, 6.4433]}, "properties": {"CNTR_ID": "LR", "CNTR_NAME": "Liberia", "NAME_ENGL": "Liberia", "NAME_FREN": "Liberia", "ISO3_CODE": "LBR", "SVRG_UN": "UN Member State", "CAPT": "Monrovia", "EU_STAT": "F", "EFTA_STAT": "F", "CC_STAT": "F", "NAME_GERM": "Liberia", "FID": "LR"}, "id": "LR"}, {"type": "Feature", "geometry": {"type": "Point", "coordinates": [28.2551, -29.5776]}, "properties": {"CNTR_ID": "LS", "CNTR_NAME": "Lesotho-Lesotho", "NAME_ENGL": "Lesotho", "NAME_FREN": "Lesotho", "ISO3_CODE": "LSO", "SVRG_UN": "UN Member State", "CAPT": "Maseru", "EU_STAT": "F", "EFTA_STAT": "F", "CC_STAT": "F", "NAME_GERM": "Lesotho", "FID": "LS"}, "id": "LS"}, {"type": "Feature", "geometry": {"type": "Point", "coordinates": [23.9197, 55.3351]}, "properties": {"CNTR_ID": "LT", "CNTR_NAME": "Lietuva", "NAME_ENGL": "Lithuania", "NAME_FREN": "Lituanie", "ISO3_CODE": "LTU", "SVRG_UN": "UN Member State", "CAPT": "Vilnius", "EU_STAT": "T", "EFTA_STAT": "F", "CC_STAT": "F", "NAME_GERM": "Litauen", "FID": "LT"}, "id": "LT"}, {"type": "Feature", "geometry": {"type": "Point", "coordinates": [6.0943, 49.771]}, "properties": {"CNTR_ID": "LU", "CNTR_NAME": "Luxemburg-Luxembourg-Lëtzebuerg", "NAME_ENGL": "Luxembourg", "NAME_FREN": "Luxembourg", "ISO3_CODE": "LUX", "SVRG_UN": "UN Member State", "CAPT": "Luxembourg", "EU_STAT": "T", "EFTA_STAT": "F", "CC_STAT": "F", "NAME_GERM": "Luxemburg", "FID": "LU"}, "id": "LU"}, {"type": "Feature", "geometry": {"type": "Point", "coordinates": [26.382, 56.6829]}, "properties": {"CNTR_ID": "LV", "CNTR_NAME": "Latvija", "NAME_ENGL": "Latvia", "NAME_FREN": "Lettonie", "ISO3_CODE": "LVA", "SVRG_UN": "UN Member State", "CAPT": "Riga", "EU_STAT": "T", "EFTA_STAT": "F", "CC_STAT": "F", "NAME_GERM": "Lettland", "FID": "LV"}, "id": "LV"}, {"type": "Feature", "geometry": {"type": "Point", "coordinates": [18.0429, 27.0102]}, "properties": {"CNTR_ID": "LY", "CNTR_NAME": "دولة ليبيا", "NAME_ENGL": "Libya", "NAME_FREN": "Libye", "ISO3_CODE": "LBY", "SVRG_UN": "UN Member State", "CAPT": "Tripoli", "EU_STAT": "F", "EFTA_STAT": "F", "CC_STAT": "F", "NAME_GERM": "Libyen", "FID": "LY"}, "id": "LY"}, {"type": "Feature", "geometry": {"type": "Point", "coordinates": [-6.2981, 31.8381]}, "properties": {"CNTR_ID": "MA", "CNTR_NAME": "المغرب", "NAME_ENGL": "Morocco", "NAME_FREN": "Maroc", "ISO3_CODE": "MAR", "SVRG_UN": "UN Member State", "CAPT": "Rabat", "EU_STAT": "F", "EFTA_STAT": "F", "CC_STAT": "F", "NAME_GERM": "Marokko", "FID": "MA"}, "id": "MA"}, {"type": "Feature", "geometry": {"type": "Point", "coordinates": [7.4188, 43.7342]}, "properties": {"CNTR_ID": "MC", "CNTR_NAME": "Monaco", "NAME_ENGL": "Monaco", "NAME_FREN": "Monaco", "ISO3_CODE": "MCO", "SVRG_UN": "UN Member State", "CAPT": "Monaco", "EU_STAT": "F", "EFTA_STAT": "F", "CC_STAT": "F", "NAME_GERM": "Monaco", "FID": "MC"}, "id": "MC"}, {"type": "Feature", "geometry": {"type": "Point", "coordinates": [28.4593, 47.2109]}, "properties": {"CNTR_ID": "MD", "CNTR_NAME": "Moldova", "NAME_ENGL": "Moldova", "NAME_FREN": "Moldavie", "ISO3_CODE": "MDA", "SVRG_UN": "UN Member State", "CAPT": "Chisinau", "EU_STAT": "F", "EFTA_STAT": "F", "CC_STAT": "T", "NAME_GERM": "Moldau", "FID": "MD"}, "id": "MD"}, {"type": "Feature", "geometry": {"type": "Point", "coordinates": [19.269, 42.7721]}, "properties": {"CNTR_ID": "ME", "CNTR_NAME": "Црна Гора", "NAME_ENGL": "Montenegro", "NAME_FREN": "Monténégro", "ISO3_CODE": "MNE", "SVRG_UN": "UN Member State", "CAPT": "Podgorica", "EU_STAT": "F", "EFTA_STAT": "F", "CC_STAT": "T", "NAME_GERM": "Montenegro", "FID": "ME"}, "id": "ME"}, {"type": "Feature", "geometry": {"type": "Point", "coordinates": [46.6955, -19.408]}, "properties": {"CNTR_ID": "MG", "CNTR_NAME": "Madagascar-Madagasikara", "NAME_ENGL": "Madagascar", "NAME_FREN": "Madagascar", "ISO3_CODE": "MDG", "SVRG_UN": "UN Member State", "CAPT": "Antananarivo", "EU_STAT": "F", "EFTA_STAT": "F", "CC_STAT": "F", "NAME_GERM": "Madagaskar", "FID": "MG"}, "id": "MG"}, {"type": "Feature", "geometry": {"type": "Point", "coordinates": [21.6966, 41.5981]}, "properties": {"CNTR_ID": "MK", "CNTR_NAME": "Северна Македонија", "NAME_ENGL": "North Macedonia", "NAME_FREN": "Macédoine du Nord", "ISO3_CODE": "MKD", "SVRG_UN": "UN Member State", "CAPT": "Skopje", "EU_STAT": "F", "EFTA_STAT": "F", "CC_STAT": "T", "NAME_GERM": "Nordmazedonien", "FID": "MK"}, "id": "MK"}, {"type": "Feature", "geometry": {"type": "Point", "coordinates": [-3.5043, 17.3709]}, "properties": {"CNTR_ID": "ML", "CNTR_NAME": "Mali", "NAME_ENGL": "Mali", "NAME_FREN": "Mali", "ISO3_CODE": "MLI", "SVRG_UN": "UN Member State", "CAPT": "Bamako", "EU_STAT": "F", "EFTA_STAT": "F", "CC_STAT": "F", "NAME_GERM": "Mali", "FID": "ML"}, "id": "ML"}, {"type": "Feature", "geometry": {"type": "Point", "coordinates": [96.501, 21.2369]}, "properties": {"CNTR_ID": "MM", "CNTR_NAME": "Myanma", "NAME_ENGL": "Myanmar/Burma", "NAME_FREN": "Myanmar/Birmanie", "ISO3_CODE": "MMR", "SVRG_UN": "UN Member State", "CAPT": "Yangon", "EU_STAT": "F", "EFTA_STAT": "F", "CC_STAT": "F", "NAME_GERM": "Myanmar/Birma", "FID": "MM"}, "id": "MM"}, {"type": "Feature", "geometry": {"type": "Point", "coordinates": [103.0489, 46.8315]}, "properties": {"CNTR_ID": "MN", "CNTR_NAME": "Монгол Улс", "NAME_ENGL": "Mongolia", "NAME_FREN": "Mongolie", "ISO3_CODE": "MNG", "SVRG_UN": "UN Member State", "CAPT": "Ulaanbaatar", "EU_STAT": "F", "EFTA_STAT": "F", "CC_STAT": "F", "NAME_GERM": "Mongolei", "FID": "MN"}, "id": "MN"}, {"type": "Feature", "geometry": {"type": "Point", "coordinates": [113.5458, 22.1975]}, "properties": {"CNTR_ID": "MO", "CNTR_NAME": "澳門-Macau", "NAME_ENGL": "Macau", "NAME_FREN": "Macao", "ISO3_CODE": "MAC", "SVRG_UN": "CN Special Administrative Region", "CAPT": "Macau", "EU_STAT": "F", "EFTA_STAT": "F", "CC_STAT": "F", "NAME_GERM": "Macau", "FID": "MO"}, "id": "MO"}, {"type": "Feature", "geometry": {"type": "Point", "coordinates": [-10.3164, 20.2616]}, "properties": {"CNTR_ID": "MR", "CNTR_NAME": "موريتانيا", "NAME_ENGL": "Mauritania", "NAME_FREN": "Mauritanie", "ISO3_CODE": "MRT", "SVRG_UN": "UN Member State", "CAPT": "Nouakchott", "EU_STAT": "F", "EFTA_STAT": "F", "CC_STAT": "F", "NAME_GERM": "Mauretanien", "FID": "MR"}, "id": "MR"}, {"type": "Feature", "geometry": {"type": "Point", "coordinates": [-62.1883, 16.7298]}, "properties": {"CNTR_ID": "MS", "CNTR_NAME": "Montserrat", "NAME_ENGL": "Montserrat", "NAME_FREN": "Montserrat", "ISO3_CODE": "MSR", "SVRG_UN": "UK Non-Self-Governing Territory", "CAPT": "Plymouth", "EU_STAT": "F", "EFTA_STAT": "F", "CC_STAT": "F", "NAME_GERM": "Montserrat", "FID": "MS"}, "id": "MS"}, {"type": "Feature", "geometry": {"type": "Point", "coordinates": [14.4312, 35.886]}, "properties": {"CNTR_ID": "MT", "CNTR_NAME": "Malta-Malta", "NAME_ENGL": "Malta", "NAME_FREN": "Malte", "ISO3_CODE": "MLT", "SVRG_UN": "UN Member State", "CAPT": "Valletta", "EU_STAT": "T", "EFTA_STAT": "F", "CC_STAT": "F", "NAME_GERM": "Malta", "FID": "MT"}, "id": "MT"}, {"type": "Feature", "geometry": {"type": "Point", "coordinates": [57.576, -20.2772]}, "properties": {"CNTR_ID": "MU", "CNTR_NAME": "Mauritius", "NAME_ENGL": "Mauritius", "NAME_FREN": "Maurice", "ISO3_CODE": "MUS", "SVRG_UN": "UN Member State", "CAPT": "Port Louis", "EU_STAT": "F", "EFTA_STAT": "F", "CC_STAT": "F", "NAME_GERM": "Mauritius", "FID": "MU"}, "id": "MU"}, {"type": "Feature", "geometry": {"type": "Point", "coordinates": [35.1203, -15.2608]}, "properties": {"CNTR_ID": "MW", "CNTR_NAME": "Malawi-Malaŵi", "NAME_ENGL": "Malawi", "NAME_FREN": "Malawi", "ISO3_CODE": "MWI", "SVRG_UN": "UN Member State", "CAPT": "Lilongwe", "EU_STAT": "F", "EFTA_STAT": "F", "CC_STAT": "F", "NAME_GERM": "Malawi", "FID": "MW"}, "id": "MW"}, {"type": "Feature", "geometry": {"type": "Point", "coordinates": [-102.5173, 23.9467]}, "properties": {"CNTR_ID": "MX", "CNTR_NAME": "México", "NAME_ENGL": "Mexico", "NAME_FREN": "Mexique", "ISO3_CODE": "MEX", "SVRG_UN": "UN Member State", "CAPT": "México", "EU_STAT": "F", "EFTA_STAT": "F", "CC_STAT": "F", "NAME_GERM": "Mexiko", "FID": "MX"}, "id": "MX"}, {"type": "Feature", "geometry": {"type": "Point", "coordinates": [114.4128, 2.8757]}, "properties": {"CNTR_ID": "MY", "CNTR_NAME": "Malaysia", "NAME_ENGL": "Malaysia", "NAME_FREN": "Malaisie", "ISO3_CODE": "MYS", "SVRG_UN": "UN Member State", "CAPT": "Kuala Lumpur", "EU_STAT": "F", "EFTA_STAT": "F", "CC_STAT": "F", "NAME_GERM": "Malaysia", "FID": "MY"}, "id": "MY"}, {"type": "Feature", "geometry": {"type": "Point", "coordinates": [38.1448, -14.313]}, "properties": {"CNTR_ID": "MZ", "CNTR_NAME": "Moçambique", "NAME_ENGL": "Mozambique", "NAME_FREN": "Mozambique", "ISO3_CODE": "MOZ", "SVRG_UN": "UN Member State", "CAPT": "Maputo", "EU_STAT": "F", "EFTA_STAT": "F", "CC_STAT": "F", "NAME_GERM": "Mosambik", "FID": "MZ"}, "id": "MZ"}, {"type": "Feature", "geometry": {"type": "Point", "coordinates": [17.2178, -22.1429]}, "properties": {"CNTR_ID": "NA", "CNTR_NAME": "Namibia", "NAME_ENGL": "Namibia", "NAME_FREN": "Namibie", "ISO3_CODE": "NAM", "SVRG_UN": "UN Member State", "CAPT": "Windhoek", "EU_STAT": "F", "EFTA_STAT": "F", "CC_STAT": "F", "NAME_GERM": "Namibia", "FID": "NA"}, "id": "NA"}, {"type": "Feature", "geometry": {"type": "Point", "coordinates": [165.5312, -21.3948]}, "properties": {"CNTR_ID": "NC", "CNTR_NAME": "Nouvelle-Calédonie", "NAME_ENGL": "New Caledonia", "NAME_FREN": "Nouvelle-Calédonie", "ISO3_CODE": "NCL", "SVRG_UN": "FR Non-Self-Governing Territory", "CAPT": "Nouméa", "EU_STAT": "F", "EFTA_STAT": "F", "CC_STAT": "F", "NAME_GERM": "Neukaledonien", "FID": "NC"}, "id": "NC"}, {"type": "Feature", "geometry": {"type": "Point", "coordinates": [9.413, 17.4338]}, "properties": {"CNTR_ID": "NE", "CNTR_NAME": "Niger", "NAME_ENGL": "Niger", "NAME_FREN": "Niger", "ISO3_CODE": "NER", "SVRG_UN": "UN Member State", "CAPT": "Niamey", "EU_STAT": "F", "EFTA_STAT": "F", "CC_STAT": "F", "NAME_GERM": "Niger", "FID": "NE"}, "id": "NE"}, {"type": "Feature", "geometry": {"type": "Point", "coordinates": [167.953, -29.034]}, "properties": {"CNTR_ID": "NF", "CNTR_NAME": "Norfolk Island-Norfuk Ailen", "NAME_ENGL": "Norfolk Island", "NAME_FREN": "Île Norfolk", "ISO3_CODE": "NFK", "SVRG_UN": "AU Territory", "CAPT": "Kingston", "EU_STAT": "F", "EFTA_STAT": "F", "CC_STAT": "F", "NAME_GERM": "Norfolkinsel", "FID": "NF"}, "id": "NF"}, {"type": "Feature", "geometry": {"type": "Point", "coordinates": [8.0851, 9.5853]}, "properties": {"CNTR_ID": "NG", "CNTR_NAME": "Nigeria", "NAME_ENGL": "Nigeria", "NAME_FREN": "Nigeria", "ISO3_CODE": "NGA", "SVRG_UN": "UN Member State", "CAPT": "Abuja", "EU_STAT": "F", "EFTA_STAT": "F", "CC_STAT": "F", "NAME_GERM": "Nigeria", "FID": "NG"}, "id": "NG"}, {"type": "Feature", "geometry": {"type": "Point", "coordinates": [-85.0476, 12.8404]}, "properties": {"CNTR_ID": "NI", "CNTR_NAME": "Nicaragua", "NAME_ENGL": "Nicaragua", "NAME_FREN": "Nicaragua", "ISO3_CODE": "NIC", "SVRG_UN": "UN Member State", "CAPT": "Managua", "EU_STAT": "F", "EFTA_STAT": "F", "CC_STAT": "F", "NAME_GERM": "Nicaragua", "FID": "NI"}, "id": "NI"}, {"type": "Feature", "geometry": {"type": "Point", "coordinates": [5.646, 52.2932]}, "properties": {"CNTR_ID": "NL", "CNTR_NAME": "Nederland", "NAME_ENGL": "Netherlands", "NAME_FREN": "Pays-Bas", "ISO3_CODE": "NLD", "SVRG_UN": "UN Member State", "CAPT": "Amsterdam", "EU_STAT": "T", "EFTA_STAT": "F", "CC_STAT": "F", "NAME_GERM": "Niederlande", "FID": "NL"}, "id": "NL"}, {"type": "Feature", "geometry": {"type": "Point", "coordinates": [11.4948, 61.7103]}, "properties": {"CNTR_ID": "NO", "CNTR_NAME": "Norga-Noreg-Norge", "NAME_ENGL": "Norway", "NAME_FREN": "Norvège", "ISO3_CODE": "NOR", "SVRG_UN": "UN Member State", "CAPT": "Oslo", "EU_STAT": "F", "EFTA_STAT": "T", "CC_STAT": "F", "NAME_GERM": "Norwegen", "FID": "NO"}, "id": "NO"}, {"type": "Feature", "geometry": {"type": "Point", "coordinates": [83.9573, 28.2613]}, "properties": {"CNTR_ID": "NP", "CNTR_NAME": "नेपाल", "NAME_ENGL": "Nepal", "NAME_FREN": "Népal", "ISO3_CODE": "NPL", "SVRG_UN": "UN Member State", "CAPT": "Kathmandu", "EU_STAT": "F", "EFTA_STAT": "F", "CC_STAT": "F", "NAME_GERM": "Nepal", "FID": "NP"}, "id": "NP"}, {"type": "Feature", "geometry": {"type": "Point", "coordinates": [166.9333, -0.5275]}, "properties": {"CNTR_ID": "NR", "CNTR_NAME": "Nauru-Naoero", "NAME_ENGL": "Nauru", "NAME_FREN": "Nauru", "ISO3_CODE": "NRU", "SVRG_UN": "UN Member State", "CAPT": "Yaren", "EU_STAT": "F", "EFTA_STAT": "F", "CC_STAT": "F", "NAME_GERM": "Nauru", "FID": "NR"}, "id": "NR"}, {"type": "Feature", "geometry": {"type": "Point", "coordinates": [-169.8584, -19.0524]}, "properties": {"CNTR_ID": "NU", "CNTR_NAME": "Niue-Niuē", "NAME_ENGL": "Niue", "NAME_FREN": "Niué", "ISO3_CODE": "NIU", "SVRG_UN": "NZ Territory", "CAPT": "Alofi", "EU_STAT": "F", "EFTA_STAT": "F", "CC_STAT": "F", "NAME_GERM": "Niue", "FID": "NU"}, "id": "NU"}, {"type": "Feature", "geometry": {"type": "Point", "coordinates": [170.4403, -44.0131]}, "properties": {"CNTR_ID": "NZ", "CNTR_NAME": "New Zealand-Aotearoa", "NAME_ENGL": "New Zealand", "NAME_FREN": "Nouvelle-Zélande", "ISO3_CODE": "NZL", "SVRG_UN": "UN Member State", "CAPT": "Wellington", "EU_STAT": "F", "EFTA_STAT": "F", "CC_STAT": "F", "NAME_GERM": "Neuseeland", "FID": "NZ"}, "id": "NZ"}, {"type": "Feature", "geometry": {"type": "Point", "coordinates": [57.8117, 21.9143]}, "properties": {"CNTR_ID": "OM", "CNTR_NAME": "سلطنة عمان", "NAME_ENGL": "Oman", "NAME_FREN": "Oman", "ISO3_CODE": "OMN", "SVRG_UN": "UN Member State", "CAPT": "Muscat", "EU_STAT": "F", "EFTA_STAT": "F", "CC_STAT": "F", "NAME_GERM": "Oman", "FID": "OM"}, "id": "OM"}, {"type": "Feature", "geometry": {"type": "Point", "coordinates": [-80.1223, 8.8084]}, "properties": {"CNTR_ID": "PA", "CNTR_NAME": "Panamá", "NAME_ENGL": "Panama", "NAME_FREN": "Panama", "ISO3_CODE": "PAN", "SVRG_UN": "UN Member State", "CAPT": "Panamá", "EU_STAT": "F", "EFTA_STAT": "F", "CC_STAT": "F", "NAME_GERM": "Panama", "FID": "PA"}, "id": "PA"}, {"type": "Feature", "geometry": {"type": "Point", "coordinates": [-71.8526, -13.5597]}, "properties": {"CNTR_ID": "PE", "CNTR_NAME": "Piruw-Piruw-Perú", "NAME_ENGL": "Peru", "NAME_FREN": "Pérou", "ISO3_CODE": "PER", "SVRG_UN": "UN Member State", "CAPT": "Lima", "EU_STAT": "F", "EFTA_STAT": "F", "CC_STAT": "F", "NAME_GERM": "Peru", "FID": "PE"}, "id": "PE"}, {"type": "Feature", "geometry": {"type": "Point", "coordinates": [144.2141, -6.5913]}, "properties": {"CNTR_ID": "PG", "CNTR_NAME": "Papua New Guinea-Papua Niu Gini-Papua Niugini", "NAME_ENGL": "Papua New Guinea", "NAME_FREN": "Papouasie-Nouvelle-Guinée", "ISO3_CODE": "PNG", "SVRG_UN": "UN Member State", "CAPT": "Port Moresby", "EU_STAT": "F", "EFTA_STAT": "F", "CC_STAT": "F", "NAME_GERM": "Papua-Neuguinea", "FID": "PG"}, "id": "PG"}, {"type": "Feature", "geometry": {"type": "Point", "coordinates": [68.8049, 29.3982]}, "properties": {"CNTR_ID": "PK", "CNTR_NAME": "Pakistan-پاكستان", "NAME_ENGL": "Pakistan", "NAME_FREN": "Pakistan", "ISO3_CODE": "PAK", "SVRG_UN": "UN Member State", "CAPT": "Islamabad", "EU_STAT": "F", "EFTA_STAT": "F", "CC_STAT": "F", "NAME_GERM": "Pakistan", "FID": "PK"}, "id": "PK"}, {"type": "Feature", "geometry": {"type": "Point", "coordinates": [19.4066, 52.1309]}, "properties": {"CNTR_ID": "PL", "CNTR_NAME": "Polska", "NAME_ENGL": "Poland", "NAME_FREN": "Pologne", "ISO3_CODE": "POL", "SVRG_UN": "UN Member State", "CAPT": "Warsaw", "EU_STAT": "T", "EFTA_STAT": "F", "CC_STAT": "F", "NAME_GERM": "Polen", "FID": "PL"}, "id": "PL"}, {"type": "Feature", "geometry": {"type": "Point", "coordinates": [-56.3272, 47.0362]}, "properties": {"CNTR_ID": "PM", "CNTR_NAME": "Saint-Pierre-Et-Miquelon", "NAME_ENGL": "Saint Pierre and Miquelon", "NAME_FREN": "Saint-Pierre-et-Miquelon", "ISO3_CODE": "SPM", "SVRG_UN": "FR Territory", "CAPT": "Saint-Pierre", "EU_STAT": "F", "EFTA_STAT": "F", "CC_STAT": "F", "NAME_GERM": "St. Pierre und Miquelon", "FID": "PM"}, "id": "PM"}, {"type": "Feature", "geometry": {"type": "Point", "coordinates": [-128.3241, -24.3755]}, "properties": {"CNTR_ID": "PN", "CNTR_NAME": "Pitcairn Islands-Pitkern Ailen", "NAME_ENGL": "Pitcairn Islands", "NAME_FREN": "Îles Pitcairn", "ISO3_CODE": "PCN", "SVRG_UN": "UK Non-Self-Governing Territory", "CAPT": "Adamstown", "EU_STAT": "F", "EFTA_STAT": "F", "CC_STAT": "F", "NAME_GERM": "Pitcairninseln", "FID": "PN"}, "id": "PN"}, {"type": "Feature", "geometry": {"type": "Point", "coordinates": [-66.4716, 18.2326]}, "properties": {"CNTR_ID": "PR", "CNTR_NAME": "Puerto Rico", "NAME_ENGL": "Puerto Rico", "NAME_FREN": "Porto Rico", "ISO3_CODE": "PRI", "SVRG_UN": "US Territory", "CAPT": "San Juan", "EU_STAT": "F", "EFTA_STAT": "F", "CC_STAT": "F", "NAME_GERM": "Puerto Rico", "FID": "PR"}, "id": "PR"}, {"type": "Feature", "geometry": {"type": "Point", "coordinates": [35.2786, 31.9693]}, "properties": {"CNTR_ID": "PS", "CNTR_NAME": "فلسطين", "NAME_ENGL": "Palestine", "NAME_FREN": "Palestine", "ISO3_CODE": "PSE", "SVRG_UN": "Non-member observer state", "CAPT": null, "EU_STAT": "F", "EFTA_STAT": "F", "CC_STAT": "F", "NAME_GERM": "Palästina", "FID": "PS"}, "id": "PS"}, {"type": "Feature", "geometry": {"type": "Point", "coordinates": [-7.9703, 39.6868]}, "properties": {"CNTR_ID": "PT", "CNTR_NAME": "Portugal", "NAME_ENGL": "Portugal", "NAME_FREN": "Portugal", "ISO3_CODE": "PRT", "SVRG_UN": "UN Member State", "CAPT": "Lisbon", "EU_STAT": "T", "EFTA_STAT": "F", "CC_STAT": "F", "NAME_GERM": "Portugal", "FID": "PT"}, "id": "PT"}, {"type": "Feature", "geometry": {"type": "Point", "coordinates": [134.5611, 7.4841]}, "properties": {"CNTR_ID": "PW", "CNTR_NAME": "Palau-Belau", "NAME_ENGL": "Palau", "NAME_FREN": "Palaos", "ISO3_CODE": "PLW", "SVRG_UN": "UN Member State", "CAPT": "Koror", "EU_STAT": "F", "EFTA_STAT": "F", "CC_STAT": "F", "NAME_GERM": "Palau", "FID": "PW"}, "id": "PW"}, {"type": "Feature", "geometry": {"type": "Point", "coordinates": [-58.4232, -23.2139]}, "properties": {"CNTR_ID": "PY", "CNTR_NAME": "Paraguay-Paraguái", "NAME_ENGL": "Paraguay", "NAME_FREN": "Paraguay", "ISO3_CODE": "PRY", "SVRG_UN": "UN Member State", "CAPT": "Asunción", "EU_STAT": "F", "EFTA_STAT": "F", "CC_STAT": "F", "NAME_GERM": "Paraguay", "FID": "PY"}, "id": "PY"}, {"type": "Feature", "geometry": {"type": "Point", "coordinates": [51.1943, 25.2708]}, "properties": {"CNTR_ID": "QA", "CNTR_NAME": "قطر", "NAME_ENGL": "Qatar", "NAME_FREN": "Qatar", "ISO3_CODE": "QAT", "SVRG_UN": "UN Member State", "CAPT": "Doha", "EU_STAT": "F", "EFTA_STAT": "F", "CC_STAT": "F", "NAME_GERM": "Katar", "FID": "QA"}, "id": "QA"}, {"type": "Feature", "geometry": {"type": "Point", "coordinates": [24.9778, 45.8361]}, "properties": {"CNTR_ID": "RO", "CNTR_NAME": "România", "NAME_ENGL": "Romania", "NAME_FREN": "Roumanie", "ISO3_CODE": "ROU", "SVRG_UN": "UN Member State", "CAPT": "Bucharest", "EU_STAT": "T", "EFTA_STAT": "F", "CC_STAT": "F", "NAME_GERM": "Rumänien", "FID": "RO"}, "id": "RO"}, {"type": "Feature", "geometry": {"type": "Point", "coordinates": [20.8129, 44.0309]}, "properties": {"CNTR_ID": "RS", "CNTR_NAME": "Србија", "NAME_ENGL": "Serbia", "NAME_FREN": "Serbie", "ISO3_CODE": "SRB", "SVRG_UN": "UN Member State", "CAPT": "Belgrade", "EU_STAT": "F", "EFTA_STAT": "F", "CC_STAT": "T", "NAME_GERM": "Serbien", "FID": "RS"}, "id": "RS"}, {"type": "Feature", "geometry": {"type": "Point", "coordinates": [99.124, 61.6334]}, "properties": {"CNTR_ID": "RU", "CNTR_NAME": "Россия", "NAME_ENGL": "Russian Federation", "NAME_FREN": "Fédération de Russie", "ISO3_CODE": "RUS", "SVRG_UN": "UN Member State", "CAPT": "Moskva", "EU_STAT": "F", "EFTA_STAT": "F", "CC_STAT": "F", "NAME_GERM": "Russische Föderation", "FID": "RU"}, "id": "RU"}, {"type": "Feature", "geometry": {"type": "Point", "coordinates": [29.9308, -1.9764]}, "properties": {"CNTR_ID": "RW", "CNTR_NAME": "Rwanda-Rwanda-Rwanda", "NAME_ENGL": "Rwanda", "NAME_FREN": "Rwanda", "ISO3_CODE": "RWA", "SVRG_UN": "UN Member State", "CAPT": "Kigali", "EU_STAT": "F", "EFTA_STAT": "F", "CC_STAT": "F", "NAME_GERM": "Ruanda", "FID": "RW"}, "id": "RW"}, {"type": "Feature", "geometry": {"type": "Point", "coordinates": [44.5537, 24.1338]}, "properties": {"CNTR_ID": "SA", "CNTR_NAME": "السعودية", "NAME_ENGL": "Saudi Arabia", "NAME_FREN": "Arabie saoudite", "ISO3_CODE": "SAU", "SVRG_UN": "UN Member State", "CAPT": "Riyadh", "EU_STAT": "F", "EFTA_STAT": "F", "CC_STAT": "F", "NAME_GERM": "Saudi-Arabien", "FID": "SA"}, "id": "SA"}, {"type": "Feature", "geometry": {"type": "Point", "coordinates": [29.9584, 16.0343]}, "properties": {"CNTR_ID": "SD", "CNTR_NAME": "السودان-Sudan", "NAME_ENGL": "Sudan", "NAME_FREN": "Soudan", "ISO3_CODE": "SDN", "SVRG_UN": "UN Member State", "CAPT": "Khartoum", "EU_STAT": "F", "EFTA_STAT": "F", "CC_STAT": "F", "NAME_GERM": "Sudan", "FID": "SD"}, "id": "SD"}, {"type": "Feature", "geometry": {"type": "Point", "coordinates": [14.4445, 60.6418]}, "properties": {"CNTR_ID": "SE", "CNTR_NAME": "Sverige", "NAME_ENGL": "Sweden", "NAME_FREN": "Suède", "ISO3_CODE": "SWE", "SVRG_UN": "UN Member State", "CAPT": "Stockholm", "EU_STAT": "T", "EFTA_STAT": "F", "CC_STAT": "F", "NAME_GERM": "Schweden", "FID": "SE"}, "id": "SE"}, {"type": "Feature", "geometry": {"type": "Point", "coordinates": [103.8394, 1.3262]}, "properties": {"CNTR_ID": "SG", "CNTR_NAME": "新加坡-Singapore-Singapura-சிங்கப்பூர்", "NAME_ENGL": "Singapore", "NAME_FREN": "Singapour", "ISO3_CODE": "SGP", "SVRG_UN": "UN Member State", "CAPT": "Singapore", "EU_STAT": "F", "EFTA_STAT": "F", "CC_STAT": "F", "NAME_GERM": "Singapur", "FID": "SG"}, "id": "SG"}, {"type": "Feature", "geometry": {"type": "Point", "coordinates": [14.8169, 46.1277]}, "properties": {"CNTR_ID": "SI", "CNTR_NAME": "Slovinsko", "NAME_ENGL": "Slovenia", "NAME_FREN": "Slovénie", "ISO3_CODE": "SVN", "SVRG_UN": "UN Member State", "CAPT": "Ljubljana", "EU_STAT": "T", "EFTA_STAT": "F", "CC_STAT": "F", "NAME_GERM": "Slowenien", "FID": "SI"}, "id": "SI"}, {"type": "Feature", "geometry": {"type": "Point", "coordinates": [13.4842, 78.8376]}, "properties": {"CNTR_ID": "SJ", "CNTR_NAME": "Svalbard Og Jan Mayen", "NAME_ENGL": "Svalbard and Jan Mayen", "NAME_FREN": "Svalbard et Jan Mayen", "ISO3_CODE": "SJM", "SVRG_UN": "NO Territory", "CAPT": "Longyearbyen", "EU_STAT": "F", "EFTA_STAT": "T", "CC_STAT": "F", "NAME_GERM": "Svalbard und Jan Mayen", "FID": "SJ"}, "id": "SJ"}, {"type": "Feature", "geometry": {"type": "Point", "coordinates": [19.4741, 48.7042]}, "properties": {"CNTR_ID": "SK", "CNTR_NAME": "Slovensko", "NAME_ENGL": "Slovakia", "NAME_FREN": "Slovaquie", "ISO3_CODE": "SVK", "SVRG_UN": "UN Member State", "CAPT": "Bratislava", "EU_STAT": "T", "EFTA_STAT": "F", "CC_STAT": "F", "NAME_GERM": "Slowakei", "FID": "SK"}, "id": "SK"}, {"type": "Feature", "geometry": {"type": "Point", "coordinates": [-11.7847, 8.5529]}, "properties": {"CNTR_ID": "SL", "CNTR_NAME": "Sierra Leone", "NAME_ENGL": "Sierra Leone", "NAME_FREN": "Sierra Leone", "ISO3_CODE": "SLE", "SVRG_UN": "UN Member State", "CAPT": "Freetown", "EU_STAT": "F", "EFTA_STAT": "F", "CC_STAT": "F", "NAME_GERM": "Sierra Leone", "FID": "SL"}, "id": "SL"}, {"type": "Feature", "geometry": {"type": "Point", "coordinates": [12.471, 43.9314]}, "properties": {"CNTR_ID": "SM", "CNTR_NAME": "San Marino", "NAME_ENGL": "San Marino", "NAME_FREN": "Saint-Marin", "ISO3_CODE": "SMR", "SVRG_UN": "UN Member State", "CAPT": "San Marino", "EU_STAT": "F", "EFTA_STAT": "F", "CC_STAT": "F", "NAME_GERM": "San Marino", "FID": "SM"}, "id": "SM"}, {"type": "Feature", "geometry": {"type": "Point", "coordinates": [-14.4462, 14.367]}, "properties": {"CNTR_ID": "SN", "CNTR_NAME": "Sénégal", "NAME_ENGL": "Senegal", "NAME_FREN": "Sénégal", "ISO3_CODE": "SEN", "SVRG_UN": "UN Member State", "CAPT": "Dakar", "EU_STAT": "F", "EFTA_STAT": "F", "CC_STAT": "F", "NAME_GERM": "Senegal", "FID": "SN"}, "id": "SN"}, {"type": "Feature", "geometry": {"type": "Point", "coordinates": [46.1155, 4.3774]}, "properties": {"CNTR_ID": "SO", "CNTR_NAME": "الصومال-Soomaaliya", "NAME_ENGL": "Somalia", "NAME_FREN": "Somalie", "ISO3_CODE": "SOM", "SVRG_UN": "UN Member State", "CAPT": "Mogadishu", "EU_STAT": "F", "EFTA_STAT": "F", "CC_STAT": "F", "NAME_GERM": "Somalia", "FID": "SO"}, "id": "SO"}, {"type": "Feature", "geometry": {"type": "Point", "coordinates": [-55.9045, 4.1428]}, "properties": {"CNTR_ID": "SR", "CNTR_NAME": "Suriname", "NAME_ENGL": "Suriname", "NAME_FREN": "Suriname", "ISO3_CODE": "SUR", "SVRG_UN": "UN Member State", "CAPT": "Paramaribo", "EU_STAT": "F", "EFTA_STAT": "F", "CC_STAT": "F", "NAME_GERM": "Suriname", "FID": "SR"}, "id": "SR"}, {"type": "Feature", "geometry": {"type": "Point", "coordinates": [30.3267, 7.2866]}, "properties": {"CNTR_ID": "SS", "CNTR_NAME": "South Sudan", "NAME_ENGL": "South Sudan", "NAME_FREN": "Soudan du Sud", "ISO3_CODE": "SSD", "SVRG_UN": "UN Member State", "CAPT": "Juba", "EU_STAT": "F", "EFTA_STAT": "F", "CC_STAT": "F", "NAME_GERM": "Südsudan", "FID": "SS"}, "id": "SS"}, {"type": "Feature", "geometry": {"type": "Point", "coordinates": [6.5977, 0.2355]}, "properties": {"CNTR_ID": "ST", "CNTR_NAME": "São Tomé E Príncipe", "NAME_ENGL": "São Tomé and Príncipe", "NAME_FREN": "Sao Tomé-et-Principe", "ISO3_CODE": "STP", "SVRG_UN": "UN Member State", "CAPT": "Sao Tomé", "EU_STAT": "F", "EFTA_STAT": "F", "CC_STAT": "F", "NAME_GERM": "São Tomé und Príncipe", "FID": "ST"}, "id": "ST"}, {"type": "Feature", "geometry": {"type": "Point", "coordinates": [-88.887, 13.7413]}, "properties": {"CNTR_ID": "SV", "CNTR_NAME": "El Salvador", "NAME_ENGL": "El Salvador", "NAME_FREN": "El Salvador", "ISO3_CODE": "SLV", "SVRG_UN": "UN Member State", "CAPT": "San Salvador", "EU_STAT": "F", "EFTA_STAT": "F", "CC_STAT": "F", "NAME_GERM": "El Salvador", "FID": "SV"}, "id": "SV"}, {"type": "Feature", "geometry": {"type": "Point", "coordinates": [-63.0545, 18.0363]}, "properties": {"CNTR_ID": "SX", "CNTR_NAME": "Sint-Maarten", "NAME_ENGL": "Sint-Maarten", "NAME_FREN": "SINT-MAARTEN", "ISO3_CODE": "SXM", "SVRG_UN": "NL Self-Governing Territory", "CAPT": "Philipsburg", "EU_STAT": "F", "EFTA_STAT": "F", "CC_STAT": "F", "NAME_GERM": null, "FID": "SX"}, "id": "SX"}, {"type": "Feature", "geometry": {"type": "Point", "coordinates": [38.4987, 35.0077]}, "properties": {"CNTR_ID": "SY", "CNTR_NAME": "سوريا", "NAME_ENGL": "Syria", "NAME_FREN": "Syrie", "ISO3_CODE": "SYR", "SVRG_UN": "UN Member State", "CAPT": "Damascus", "EU_STAT": "F", "EFTA_STAT": "F", "CC_STAT": "F", "NAME_GERM": "Syrien", "FID": "SY"}, "id": "SY"}, {"type": "Feature", "geometry": {"type": "Point", "coordinates": [31.5155, -26.5825]}, "properties": {"CNTR_ID": "SZ", "CNTR_NAME": "Kingdom of Eswatini", "NAME_ENGL": "Eswatini", "NAME_FREN": "Eswatini", "ISO3_CODE": "SWZ", "SVRG_UN": "UN Member State", "CAPT": "Mbabane (adm.)", "EU_STAT": "F", "EFTA_STAT": "F", "CC_STAT": "F", "NAME_GERM": "Eswantini", "FID": "SZ"}, "id": "SZ"}, {"type": "Feature", "geometry": {"type": "Point", "coordinates": [18.6701, 15.344]}, "properties": {"CNTR_ID": "TD", "CNTR_NAME": "تشاد-Tchad", "NAME_ENGL": "Chad", "NAME_FREN": "Tchad", "ISO3_CODE": "TCD", "SVRG_UN": "UN Member State", "CAPT": "N'Djamena", "EU_STAT": "F", "EFTA_STAT": "F", "CC_STAT": "F", "NAME_GERM": "Tschad", "FID": "TD"}, "id": "TD"}, {"type": "Feature", "geometry": {"type": "Point", "coordinates": [69.2169, -49.3089]}, "properties": {"CNTR_ID": "TF", "CNTR_NAME": "Terres Australes Et Antarctiques Françaises", "NAME_ENGL": "French Southern and Antarctic Lands", "NAME_FREN": "Terres australes et antarctiques françaises", "ISO3_CODE": "ATF", "SVRG_UN": "FR Territory", "CAPT": "Port-aux-Français", "EU_STAT": "F", "EFTA_STAT": "F", "CC_STAT": "F", "NAME_GERM": "Französischen Süd- und Antarktisgebiete", "FID": "TF"}, "id": "TF"}, {"type": "Feature", "geometry": {"type": "Point", "coordinates": [0.9785, 8.548]}, "properties": {"CNTR_ID": "TG", "CNTR_NAME": "Togo", "NAME_ENGL": "Togo", "NAME_FREN": "Togo", "ISO3_CODE": "TGO", "SVRG_UN": "UN Member State", "CAPT": "Lomé", "EU_STAT": "F", "EFTA_STAT": "F", "CC_STAT": "F", "NAME_GERM": "Togo", "FID": "TG"}, "id": "TG"}, {"type": "Feature", "geometry": {"type": "Point", "coordinates": [101.0305, 15.1496]}, "properties": {"CNTR_ID": "TH", "CNTR_NAME": "ประเทศไทย", "NAME_ENGL": "Thailand", "NAME_FREN": "Thaïlande", "ISO3_CODE": "THA", "SVRG_UN": "UN Member State", "CAPT": "Bangkok", "EU_STAT": "F", "EFTA_STAT": "F", "CC_STAT": "F", "NAME_GERM": "Thailand", "FID": "TH"}, "id": "TH"}, {"type": "Feature", "geometry": {"type": "Point", "coordinates": [69.4202, 38.5046]}, "properties": {"CNTR_ID": "TJ", "CNTR_NAME": "Тоҷикистон", "NAME_ENGL": "Tajikistan", "NAME_FREN": "Tadjikistan", "ISO3_CODE": "TJK", "SVRG_UN": "UN Member State", "CAPT": "Dushanbe", "EU_STAT": "F", "EFTA_STAT": "F", "CC_STAT": "F", "NAME_GERM": "Tadschikistan", "FID": "TJ"}, "id": "TJ"}, {"type": "Feature", "geometry": {"type": "Point", "coordinates": [125.9334, -8.7999]}, "properties": {"CNTR_ID": "TL", "CNTR_NAME": "Timor-Leste-Timor Lorosae", "NAME_ENGL": "Timor-Leste", "NAME_FREN": "Timor-Oriental", "ISO3_CODE": "TLS", "SVRG_UN": "UN Member State", "CAPT": "Dili", "EU_STAT": "F", "EFTA_STAT": "F", "CC_STAT": "F", "NAME_GERM": "Timor-Leste", "FID": "TL"}, "id": "TL"}, {"type": "Feature", "geometry": {"type": "Point", "coordinates": [59.4192, 39.1055]}, "properties": {"CNTR_ID": "TM", "CNTR_NAME": "Türkmenistan", "NAME_ENGL": "Turkmenistan", "NAME_FREN": "Turkménistan", "ISO3_CODE": "TKM", "SVRG_UN": "UN Member State", "CAPT": "Ashgabat", "EU_STAT": "F", "EFTA_STAT": "F", "CC_STAT": "F", "NAME_GERM": "Turkmenistan", "FID": "TM"}, "id": "TM"}, {"type": "Feature", "geometry": {"type": "Point", "coordinates": [9.5549, 33.7421]}, "properties": {"CNTR_ID": "TN", "CNTR_NAME": "تونس", "NAME_ENGL": "Tunisia", "NAME_FREN": "Tunisie", "ISO3_CODE": "TUN", "SVRG_UN": "UN Member State", "CAPT": "Tunis", "EU_STAT": "F", "EFTA_STAT": "F", "CC_STAT": "F", "NAME_GERM": "Tunesien", "FID": "TN"}, "id": "TN"}, {"type": "Feature", "geometry": {"type": "Point", "coordinates": [35.4709, 38.9923]}, "properties": {"CNTR_ID": "TR", "CNTR_NAME": "Türkiye", "NAME_ENGL": "Türkiye", "NAME_FREN": "Turquie", "ISO3_CODE": "TUR", "SVRG_UN": "UN Member State", "CAPT": "Ankara", "EU_STAT": "F", "EFTA_STAT": "F", "CC_STAT": "T", "NAME_GERM": "Türkei", "FID": "TR"}, "id": "TR"}, {"type": "Feature", "geometry": {"type": "Point", "coordinates": [-61.267, 10.4364]}, "properties": {"CNTR_ID": "TT", "CNTR_NAME": "Trinidad and Tobago", "NAME_ENGL": "Trinidad and Tobago", "NAME_FREN": "Trinidad-et-Tobago", "ISO3_CODE": "TTO", "SVRG_UN": "UN Member State", "CAPT": "Port of Spain", "EU_STAT": "F", "EFTA_STAT": "F", "CC_STAT": "F", "NAME_GERM": "Trinidad und Tobago", "FID": "TT"}, "id": "TT"}, {"type": "Feature", "geometry": {"type": "Point", "coordinates": [34.802, -6.2595]}, "properties": {"CNTR_ID": "TZ", "CNTR_NAME": "Tanzania", "NAME_ENGL": "United Republic of Tanzania", "NAME_FREN": "République-Unie de Tanzanie", "ISO3_CODE": "TZA", "SVRG_UN": "UN Member State", "CAPT": "Dodoma", "EU_STAT": "F", "EFTA_STAT": "F", "CC_STAT": "F", "NAME_GERM": "Tansania", "FID": "TZ"}, "id": "TZ"}, {"type": "Feature", "geometry": {"type": "Point", "coordinates": [31.3628, 49.0322]}, "properties": {"CNTR_ID": "UA", "CNTR_NAME": "Україна", "NAME_ENGL": "Ukraine", "NAME_FREN": "Ukraine", "ISO3_CODE": "UKR", "SVRG_UN": "UN Member State", "CAPT": "Kyïv", "EU_STAT": "F", "EFTA_STAT": "F", "CC_STAT": "T", "NAME_GERM": "Ukraine", "FID": "UA"}, "id": "UA"}, {"type": "Feature", "geometry": {"type": "Point", "coordinates": [32.389, 1.2776]}, "properties": {"CNTR_ID": "UG", "CNTR_NAME": "Uganda-Uganda", "NAME_ENGL": "Uganda", "NAME_FREN": "Ouganda", "ISO3_CODE": "UGA", "SVRG_UN": "UN Member State", "CAPT": "Kampala", "EU_STAT": "F", "EFTA_STAT": "F", "CC_STAT": "F", "NAME_GERM": "Uganda", "FID": "UG"}, "id": "UG"}, {"type": "Feature", "geometry": {"type": "Point", "coordinates": [-2.1086, 53.2786]}, "properties": {"CNTR_ID": "UK", "CNTR_NAME": "United Kingdom", "NAME_ENGL": "United Kingdom", "NAME_FREN": "Royaume-Uni", "ISO3_CODE": "GBR", "SVRG_UN": "UN Member State", "CAPT": "London", "EU_STAT": "F", "EFTA_STAT": "F", "CC_STAT": "F", "NAME_GERM": "Vereinigtes Königreich", "FID": "UK"}, "id": "UK"}, {"type": "Feature", "geometry": {"type": "Point", "coordinates": [-162.4606, 6.4102]}, "properties": {"CNTR_ID": "UM", "CNTR_NAME": "United States Minor Outlying Islands", "NAME_ENGL": "United States Minor Outlying Islands", "NAME_FREN": "Îles mineures éloignées des États-Unis", "ISO3_CODE": "UMI", "SVRG_UN": "US Territory", "CAPT": null, "EU_STAT": "F", "EFTA_STAT": "F", "CC_STAT": "F", "NAME_GERM": "Kleineren Amerikanischen Überseeinseln", "FID": "UM"}, "id": "UM"}, {"type": "Feature", "geometry": {"type": "Point", "coordinates": [-99.1943, 39.537]}, "properties": {"CNTR_ID": "US", "CNTR_NAME": "United States", "NAME_ENGL": "United States", "NAME_FREN": "États-Unis", "ISO3_CODE": "USA", "SVRG_UN": "UN Member State", "CAPT": "Washington, D.C.", "EU_STAT": "F", "EFTA_STAT": "F", "CC_STAT": "F", "NAME_GERM": "Vereinigten Staaten", "FID": "US"}, "id": "US"}, {"type": "Feature", "geometry": {"type": "Point", "coordinates": [-56.0061, -32.8049]}, "properties": {"CNTR_ID": "UY", "CNTR_NAME": "Uruguay", "NAME_ENGL": "Uruguay", "NAME_FREN": "Uruguay", "ISO3_CODE": "URY", "SVRG_UN": "UN Member State", "CAPT": "Montevideo", "EU_STAT": "F", "EFTA_STAT": "F", "CC_STAT": "F", "NAME_GERM": "Uruguay", "FID": "UY"}, "id": "UY"}, {"type": "Feature", "geometry": {"type": "Point", "coordinates": [64.3964, 41.2698]}, "properties": {"CNTR_ID": "UZ", "CNTR_NAME": "Узбекистан", "NAME_ENGL": "Uzbekistan", "NAME_FREN": "Ouzbékistan", "ISO3_CODE": "UZB", "SVRG_UN": "UN Member State", "CAPT": "Tashkent", "EU_STAT": "F", "EFTA_STAT": "F", "CC_STAT": "F", "NAME_GERM": "Usbekistan", "FID": "UZ"}, "id": "UZ"}, {"type": "Feature", "geometry": {"type": "Point", "coordinates": [12.4528, 41.9035]}, "properties": {"CNTR_ID": "VA", "CNTR_NAME": "Stato Della Città Del Vaticano-Status Civitatis Vaticanae", "NAME_ENGL": "Vatican City", "NAME_FREN": "Cité du Vatican", "ISO3_CODE": "VAT", "SVRG_UN": "The City of Vatican", "CAPT": "Vaticano", "EU_STAT": "F", "EFTA_STAT": "F", "CC_STAT": "F", "NAME_GERM": "Vatikanstadt", "FID": "VA"}, "id": "VA"}, {"type": "Feature", "geometry": {"type": "Point", "coordinates": [-61.1881, 13.2531]}, "properties": {"CNTR_ID": "VC", "CNTR_NAME": "Saint Vincent and The Grenadines", "NAME_ENGL": "Saint Vincent and The Grenadines", "NAME_FREN": "Saint-Vincent-et-les-Grenadines", "ISO3_CODE": "VCT", "SVRG_UN": "UN Member State", "CAPT": "Kingstown", "EU_STAT": "F", "EFTA_STAT": "F", "CC_STAT": "F", "NAME_GERM": "St. Vincent und die Grenadinen", "FID": "VC"}, "id": "VC"}, {"type": "Feature", "geometry": {"type": "Point", "coordinates": [-66.1542, 7.1089]}, "properties": {"CNTR_ID": "VE", "CNTR_NAME": "Venezuela", "NAME_ENGL": "Venezuela", "NAME_FREN": "Venezuela", "ISO3_CODE": "VEN", "SVRG_UN": "UN Member State", "CAPT": "Caracas", "EU_STAT": "F", "EFTA_STAT": "F", "CC_STAT": "F", "NAME_GERM": "Venezuela", "FID": "VE"}, "id": "VE"}, {"type": "Feature", "geometry": {"type": "Point", "coordinates": [-64.7971, 17.7318]}, "properties": {"CNTR_ID": "VI", "CNTR_NAME": "Us Virgin Islands", "NAME_ENGL": "Us Virgin Islands", "NAME_FREN": "Îles Vierges américaines", "ISO3_CODE": "VIR", "SVRG_UN": "US Non-Self-Governing Territory", "CAPT": "Charlotte Amalie", "EU_STAT": "F", "EFTA_STAT": "F", "CC_STAT": "F", "NAME_GERM": "Amerikanischen Jungferninseln", "FID": "VI"}, "id": "VI"}, {"type": "Feature", "geometry": {"type": "Point", "coordinates": [107.5701, 11.5307]}, "properties": {"CNTR_ID": "VN", "CNTR_NAME": "Việt Nam", "NAME_ENGL": "Vietnam", "NAME_FREN": "Viêt Nam", "ISO3_CODE": "VNM", "SVRG_UN": "UN Member State", "CAPT": "Hanoi", "EU_STAT": "F", "EFTA_STAT": "F", "CC_STAT": "F", "NAME_GERM": "Vietnam", "FID": "VN"}, "id": "VN"}, {"type": "Feature", "geometry": {"type": "Point", "coordinates": [-172.4412, -13.621]}, "properties": {"CNTR_ID": "WS", "CNTR_NAME": "Samoa-Sāmoa", "NAME_ENGL": "Samoa", "NAME_FREN": "Samoa", "ISO3_CODE": "WSM", "SVRG_UN": "UN Member State", "CAPT": "Apia", "EU_STAT": "F", "EFTA_STAT": "F", "CC_STAT": "F", "NAME_GERM": "Samoa", "FID": "WS"}, "id": "WS"}, {"type": "Feature", "geometry": {"type": "Point", "coordinates": [79.1237, 35.0111]}, "properties": {"CNTR_ID": "XC", "CNTR_NAME": "Aksai Chin (Disputed Territory)", "NAME_ENGL": "Aksai Chin", "NAME_FREN": null, "ISO3_CODE": "XC", "SVRG_UN": "Sovereignty unsettled", "CAPT": null, "EU_STAT": "F", "EFTA_STAT": "F", "CC_STAT": "F", "NAME_GERM": null, "FID": "XC"}, "id": "XC"}, {"type": "Feature", "geometry": {"type": "Point", "coordinates": [94.4946, 28.4402]}, "properties": {"CNTR_ID": "XD", "CNTR_NAME": "Arunashal Pradesh (Disputed Territory)", "NAME_ENGL": "Arunachal Pradesh", "NAME_FREN": null, "ISO3_CODE": "XD", "SVRG_UN": "Sovereignty unsettled", "CAPT": null, "EU_STAT": "F", "EFTA_STAT": "F", "CC_STAT": "F", "NAME_GERM": null, "FID": "XD"}, "id": "XD"}, {"type": "Feature", "geometry": {"type": "Point", "coordinates": [79.326, 32.8821]}, "properties": {"CNTR_ID": "XE", "CNTR_NAME": "China/India (Disputed Territory)", "NAME_ENGL": "China/India", "NAME_FREN": null, "ISO3_CODE": "XE", "SVRG_UN": "Sovereignty unsettled", "CAPT": null, "EU_STAT": "F", "EFTA_STAT": "F", "CC_STAT": "F", "NAME_GERM": null, "FID": "XE"}, "id": "XE"}, {"type": "Feature", "geometry": {"type": "Point", "coordinates": [35.4819, 22.3617]}, "properties": {"CNTR_ID": "XF", "CNTR_NAME": "Hala'Ib Triangle (Disputed Territory)", "NAME_ENGL": "Hala'Ib Triangle", "NAME_FREN": null, "ISO3_CODE": "XF", "SVRG_UN": "Sovereignty unsettled", "CAPT": null, "EU_STAT": "F", "EFTA_STAT": "F", "CC_STAT": "F", "NAME_GERM": null, "FID": "XF"}, "id": "XF"}, {"type": "Feature", "geometry": {"type": "Point", "coordinates": [35.0029, 4.7378]}, "properties": {"CNTR_ID": "XG", "CNTR_NAME": "Ilemi Triangle (Disputed Territory)", "NAME_ENGL": "Ilemi Triangle", "NAME_FREN": null, "ISO3_CODE": "XG", "SVRG_UN": "Sovereignty unsettled", "CAPT": null, "EU_STAT": "F", "EFTA_STAT": "F", "CC_STAT": "F", "NAME_GERM": null, "FID": "XG"}, "id": "XG"}, {"type": "Feature", "geometry": {"type": "Point", "coordinates": [75.7996, 34.5631]}, "properties": {"CNTR_ID": "XH", "CNTR_NAME": "Jammu Kashmir (Disputed Territory)", "NAME_ENGL": "Jammu Kashmir", "NAME_FREN": null, "ISO3_CODE": "XH", "SVRG_UN": "Sovereignty unsettled", "CAPT": null, "EU_STAT": "F", "EFTA_STAT": "F", "CC_STAT": "F", "NAME_GERM": null, "FID": "XH"}, "id": "XH"}, {"type": "Feature", "geometry": {"type": "Point", "coordinates": [147.9103, 45.1573]}, "properties": {"CNTR_ID": "XI", "CNTR_NAME": "Kuril Islands (Disputed Territory)", "NAME_ENGL": "Kuril Islands", "NAME_FREN": null, "ISO3_CODE": "XI", "SVRG_UN": "Sovereignty unsettled", "CAPT": null, "EU_STAT": "F", "EFTA_STAT": "F", "CC_STAT": "F", "NAME_GERM": null, "FID": "XI"}, "id": "XI"}, {"type": "Feature", "geometry": {"type": "Point", "coordinates": [-75.0125, 18.4019]}, "properties": {"CNTR_ID": "XL", "CNTR_NAME": "Navassa Island (Disputed Territory)", "NAME_ENGL": "Navassa Island", "NAME_FREN": null, "ISO3_CODE": "XL", "SVRG_UN": "US Territory", "CAPT": null, "EU_STAT": "F", "EFTA_STAT": "F", "CC_STAT": "F", "NAME_GERM": null, "FID": "XL"}, "id": "XL"}, {"type": "Feature", "geometry": {"type": "Point", "coordinates": [117.732, 15.2128]}, "properties": {"CNTR_ID": "XM", "CNTR_NAME": "Scarborough Reef (Disputed Territory)", "NAME_ENGL": "Scarborough Reef", "NAME_FREN": null, "ISO3_CODE": "XM", "SVRG_UN": "Sovereignty unsettled", "CAPT": null, "EU_STAT": "F", "EFTA_STAT": "F", "CC_STAT": "F", "NAME_GERM": null, "FID": "XM"}, "id": "XM"}, {"type": "Feature", "geometry": {"type": "Point", "coordinates": [40.3499, -22.361]}, "properties": {"CNTR_ID": "XO", "CNTR_NAME": "Fr Territory (Juan de Nova, Glorioso, Europa, Tromelin, Bassas Da India)", "NAME_ENGL": "Bassas Da India", "NAME_FREN": null, "ISO3_CODE": "XO", "SVRG_UN": "FR Territory", "CAPT": null, "EU_STAT": "F", "EFTA_STAT": "F", "CC_STAT": "F", "NAME_GERM": null, "FID": "XO"}, "id": "XO"}, {"type": "Feature", "geometry": {"type": "Point", "coordinates": [28.3975, 9.7746]}, "properties": {"CNTR_ID": "XU", "CNTR_NAME": "Abyei Region (Disputed Territory)", "NAME_ENGL": "Abyei", "NAME_FREN": null, "ISO3_CODE": "XU", "SVRG_UN": "Sovereignty unsettled", "CAPT": null, "EU_STAT": "F", "EFTA_STAT": "F", "CC_STAT": "F", "NAME_GERM": null, "FID": "XU"}, "id": "XU"}, {"type": "Feature", "geometry": {"type": "Point", "coordinates": [33.6915, 21.8998]}, "properties": {"CNTR_ID": "XV", "CNTR_NAME": "Bir Tawil (Disputed Territory)", "NAME_ENGL": "Bir Tawil (Disputed Territory)", "NAME_FREN": null, "ISO3_CODE": "XV", "SVRG_UN": "Sovereignty unsettled", "CAPT": null, "EU_STAT": "F", "EFTA_STAT": "F", "CC_STAT": "F", "NAME_GERM": null, "FID": "XV"}, "id": "XV"}, {"type": "Feature", "geometry": {"type": "Point", "coordinates": [45.2867, 15.1859]}, "properties": {"CNTR_ID": "YE", "CNTR_NAME": "اليمن", "NAME_ENGL": "Yemen", "NAME_FREN": "Yémen", "ISO3_CODE": "YEM", "SVRG_UN": "UN Member State", "CAPT": "Sana’a", "EU_STAT": "F", "EFTA_STAT": "F", "CC_STAT": "F", "NAME_GERM": "Jemen", "FID": "YE"}, "id": "YE"}, {"type": "Feature", "geometry": {"type": "Point", "coordinates": [24.6736, -29.9966]}, "properties": {"CNTR_ID": "ZA", "CNTR_NAME": "Suid-Afrika-South Africa-Sewula Afrika-Afrika-Borwa-Afrika-Borwa-Ningizimu Afrika-Aforika Borwa-Afrika Dzonga-Afurika Tshipembe-Mzantsi Afrika-Ningizimu Afrika", "NAME_ENGL": "South Africa", "NAME_FREN": "Afrique du Sud", "ISO3_CODE": "ZAF", "SVRG_UN": "UN Member State", "CAPT": "Pretoria (Adm.)", "EU_STAT": "F", "EFTA_STAT": "F", "CC_STAT": "F", "NAME_GERM": "Südafrika", "FID": "ZA"}, "id": "ZA"}, {"type": "Feature", "geometry": {"type": "Point", "coordinates": [27.8238, -14.6349]}, "properties": {"CNTR_ID": "ZM", "CNTR_NAME": "Zambia", "NAME_ENGL": "Zambia", "NAME_FREN": "Zambie", "ISO3_CODE": "ZMB", "SVRG_UN": "UN Member State", "CAPT": "Lusaka", "EU_STAT": "F", "EFTA_STAT": "F", "CC_STAT": "F", "NAME_GERM": "Sambia", "FID": "ZM"}, "id": "ZM"}, {"type": "Feature", "geometry": {"type": "Point", "coordinates": [29.8678, -19.0019]}, "properties": {"CNTR_ID": "ZW", "CNTR_NAME": "Zimbabwe", "NAME_ENGL": "Zimbabwe", "NAME_FREN": "Zimbabwe", "ISO3_CODE": "ZWE", "SVRG_UN": "UN Member State", "CAPT": "Harare", "EU_STAT": "F", "EFTA_STAT": "F", "CC_STAT": "F", "NAME_GERM": "Simbabwe", "FID": "ZW"}, "id": "ZW"}, {"type": "Feature", "geometry": {"type": "Point", "coordinates": [96.8545, -12.1447]}, "properties": {"CNTR_ID": "CC", "CNTR_NAME": "Cocos Keeling Islands", "NAME_ENGL": "Cocos (Keeling) Islands", "NAME_FREN": "Îles des Cocos", "ISO3_CODE": "CCK", "SVRG_UN": "AU Territory", "CAPT": "West Island", "EU_STAT": "F", "EFTA_STAT": "F", "CC_STAT": "F", "NAME_GERM": "Kokosinseln", "FID": "CC"}, "id": "CC"}, {"type": "Feature", "geometry": {"type": "Point", "coordinates": [-76.6112, 24.2543]}, "properties": {"CNTR_ID": "BS", "CNTR_NAME": "Bahamas", "NAME_ENGL": "Bahamas", "NAME_FREN": "Bahamas", "ISO3_CODE": "BHS", "SVRG_UN": "UN Member State", "CAPT": "Nassau", "EU_STAT": "F", "EFTA_STAT": "F", "CC_STAT": "F", "NAME_GERM": "Bahamas", "FID": "BS"}, "id": "BS"}, {"type": "Feature", "geometry": {"type": "Point", "coordinates": [111.8758, 16.3681]}, "properties": {"CNTR_ID": "XA", "CNTR_NAME": "Paracel Islands (Disputed Territory)", "NAME_ENGL": "Paracel Islands", "NAME_FREN": null, "ISO3_CODE": "XA", "SVRG_UN": "Sovereignty unsettled", "CAPT": null, "EU_STAT": "F", "EFTA_STAT": "F", "CC_STAT": "F", "NAME_GERM": null, "FID": "XA"}, "id": "XA"}, {"type": "Feature", "geometry": {"type": "Point", "coordinates": [-145.2486, -15.4228]}, "properties": {"CNTR_ID": "PF", "CNTR_NAME": "Polynésie Française", "NAME_ENGL": "French Polynesia", "NAME_FREN": "Polynésie française", "ISO3_CODE": "PYF", "SVRG_UN": "FR Territory", "CAPT": "Papeete", "EU_STAT": "F", "EFTA_STAT": "F", "CC_STAT": "F", "NAME_GERM": "Französisch-Polynesien", "FID": "PF"}, "id": "PF"}, {"type": "Feature", "geometry": {"type": "Point", "coordinates": [-174.8472, -19.859]}, "properties": {"CNTR_ID": "TO", "CNTR_NAME": "Tonga-Tonga", "NAME_ENGL": "Tonga", "NAME_FREN": "Tonga", "ISO3_CODE": "TON", "SVRG_UN": "UN Member State", "CAPT": "Nuku'alofa", "EU_STAT": "F", "EFTA_STAT": "F", "CC_STAT": "F", "NAME_GERM": "Tonga", "FID": "TO"}, "id": "TO"}, {"type": "Feature", "geometry": {"type": "Point", "coordinates": [-71.8562, 21.7501]}, "properties": {"CNTR_ID": "TC", "CNTR_NAME": "Turks and Caicos Islands", "NAME_ENGL": "Turks and Caicos Islands", "NAME_FREN": "Îles Turks-et-Caïcos", "ISO3_CODE": "TCA", "SVRG_UN": "UK Non-Self-Governing Territory", "CAPT": "Cockburn Town", "EU_STAT": "F", "EFTA_STAT": "F", "CC_STAT": "F", "NAME_GERM": "Turks- und Caicosinseln", "FID": "TC"}, "id": "TC"}, {"type": "Feature", "geometry": {"type": "Point", "coordinates": [-177.1944, -13.8292]}, "properties": {"CNTR_ID": "WF", "CNTR_NAME": "Wallis-Et-Futuna", "NAME_ENGL": "Wallis and Futuna", "NAME_FREN": "Wallis-et-Futuna", "ISO3_CODE": "WLF", "SVRG_UN": "FR Territory", "CAPT": "Mata-Utu", "EU_STAT": "F", "EFTA_STAT": "F", "CC_STAT": "F", "NAME_GERM": "Wallis und Futuna", "FID": "WF"}, "id": "WF"}, {"type": "Feature", "geometry": {"type": "Point", "coordinates": [167.7031, -16.1959]}, "properties": {"CNTR_ID": "VU", "CNTR_NAME": "Vanuatu-Vanuatu-Vanuatu", "NAME_ENGL": "Vanuatu", "NAME_FREN": "Vanuatu", "ISO3_CODE": "VUT", "SVRG_UN": "UN Member State", "CAPT": "Port-Vila", "EU_STAT": "F", "EFTA_STAT": "F", "CC_STAT": "F", "NAME_GERM": "Vanuatu", "FID": "VU"}, "id": "VU"}, {"type": "Feature", "geometry": {"type": "Point", "coordinates": [-64.5158, 18.5115]}, "properties": {"CNTR_ID": "VG", "CNTR_NAME": "British Virgin Islands", "NAME_ENGL": "British Virgin Islands", "NAME_FREN": "Îles Vierges britanniques", "ISO3_CODE": "VGB", "SVRG_UN": "UK Non-Self-Governing Territory", "CAPT": "Road Town", "EU_STAT": "F", "EFTA_STAT": "F", "CC_STAT": "F", "NAME_GERM": "Britischen Jungferninseln", "FID": "VG"}, "id": "VG"}, {"type": "Feature", "geometry": {"type": "Point", "coordinates": [-158.9782, -19.2114]}, "properties": {"CNTR_ID": "CK", "CNTR_NAME": "Cook Islands-Kūki 'Āirani", "NAME_ENGL": "Cook Islands", "NAME_FREN": "Îles Cook", "ISO3_CODE": "COK", "SVRG_UN": "NZ Territory", "CAPT": "Avarua", "EU_STAT": "F", "EFTA_STAT": "F", "CC_STAT": "F", "NAME_GERM": "Cookinseln", "FID": "CK"}, "id": "CK"}, {"type": "Feature", "geometry": {"type": "Point", "coordinates": [115.1302, 10.6117]}, "properties": {"CNTR_ID": "XB", "CNTR_NAME": "Spratly Islands (Disputed Territory)", "NAME_ENGL": "Spratly Islands", "NAME_FREN": null, "ISO3_CODE": "XB", "SVRG_UN": "Sovereignty unsettled", "CAPT": null, "EU_STAT": "F", "EFTA_STAT": "F", "CC_STAT": "F", "NAME_GERM": null, "FID": "XB"}, "id": "XB"}, {"type": "Feature", "geometry": {"type": "Point", "coordinates": [51.8358, -6.6938]}, "properties": {"CNTR_ID": "SC", "CNTR_NAME": "Sesel-Seychelles-Seychelles", "NAME_ENGL": "Seychelles", "NAME_FREN": "Seychelles", "ISO3_CODE": "SYC", "SVRG_UN": "UN Member State", "CAPT": "Victoria", "EU_STAT": "F", "EFTA_STAT": "F", "CC_STAT": "F", "NAME_GERM": "Seychellen", "FID": "SC"}, "id": "SC"}, {"type": "Feature", "geometry": {"type": "Point", "coordinates": [-23.9802, 15.9412]}, "properties": {"CNTR_ID": "CV", "CNTR_NAME": "Cabo Verde", "NAME_ENGL": "Cape Verde", "NAME_FREN": "Cap-Vert", "ISO3_CODE": "CPV", "SVRG_UN": "UN Member State", "CAPT": "Praia", "EU_STAT": "F", "EFTA_STAT": "F", "CC_STAT": "F", "NAME_GERM": "Cabo Verde", "FID": "CV"}, "id": "CV"}, {"type": "Feature", "geometry": {"type": "Point", "coordinates": [117.2774, -2.2261]}, "properties": {"CNTR_ID": "ID", "CNTR_NAME": "Indonesia", "NAME_ENGL": "Indonesia", "NAME_FREN": "Indonésie", "ISO3_CODE": "IDN", "SVRG_UN": "UN Member State", "CAPT": "Jakarta", "EU_STAT": "F", "EFTA_STAT": "F", "CC_STAT": "F", "NAME_GERM": "Indonesien", "FID": "ID"}, "id": "ID"}, {"type": "Feature", "geometry": {"type": "Point", "coordinates": [73.2207, 3.8486]}, "properties": {"CNTR_ID": "MV", "CNTR_NAME": "Republic of Maldives", "NAME_ENGL": "Maldives", "NAME_FREN": "Maldives", "ISO3_CODE": "MDV", "SVRG_UN": "UN Member State", "CAPT": "Male", "EU_STAT": "F", "EFTA_STAT": "F", "CC_STAT": "F", "NAME_GERM": "Malediven", "FID": "MV"}, "id": "MV"}, {"type": "Feature", "geometry": {"type": "Point", "coordinates": [122.8671, 11.7347]}, "properties": {"CNTR_ID": "PH", "CNTR_NAME": "Philippines-Pilipinas", "NAME_ENGL": "Philippines", "NAME_FREN": "Philippines", "ISO3_CODE": "PHL", "SVRG_UN": "UN Member State", "CAPT": "Manila", "EU_STAT": "F", "EFTA_STAT": "F", "CC_STAT": "F", "NAME_GERM": "Philippinen", "FID": "PH"}, "id": "PH"}, {"type": "Feature", "geometry": {"type": "Point", "coordinates": [178.6907, -7.477]}, "properties": {"CNTR_ID": "TV", "CNTR_NAME": "Tuvalu-Tuvalu", "NAME_ENGL": "Tuvalu", "NAME_FREN": "Tuvalu", "ISO3_CODE": "TUV", "SVRG_UN": "UN Member State", "CAPT": "Funafuti", "EU_STAT": "F", "EFTA_STAT": "F", "CC_STAT": "F", "NAME_GERM": "Tuvalu", "FID": "TV"}, "id": "TV"}, {"type": "Feature", "geometry": {"type": "Point", "coordinates": [123.5295, 25.772]}, "properties": {"CNTR_ID": "XN", "CNTR_NAME": "Senkaku Islands (Disputed Territory)", "NAME_ENGL": "Senkaku Islands", "NAME_FREN": null, "ISO3_CODE": "XN", "SVRG_UN": "Sovereignty unsettled", "CAPT": null, "EU_STAT": "F", "EFTA_STAT": "F", "CC_STAT": "F", "NAME_GERM": null, "FID": "XN"}, "id": "XN"}, {"type": "Feature", "geometry": {"type": "Point", "coordinates": [159.6008, -8.8995]}, "properties": {"CNTR_ID": "SB", "CNTR_NAME": "Solomon Islands", "NAME_ENGL": "Solomon Islands", "NAME_FREN": "Îles Salomon", "ISO3_CODE": "SLB", "SVRG_UN": "UN Member State", "CAPT": "Honiara", "EU_STAT": "F", "EFTA_STAT": "F", "CC_STAT": "F", "NAME_GERM": "Salomonen", "FID": "SB"}, "id": "SB"}, {"type": "Feature", "geometry": {"type": "Point", "coordinates": [168.5277, 6.7211]}, "properties": {"CNTR_ID": "MH", "CNTR_NAME": "Marshall Islands-Aorōkin M̧Ajeļ", "NAME_ENGL": "Marshall Islands", "NAME_FREN": "Îles Marshall", "ISO3_CODE": "MHL", "SVRG_UN": "UN Member State", "CAPT": "Majuro", "EU_STAT": "F", "EFTA_STAT": "F", "CC_STAT": "F", "NAME_GERM": "Marshallinseln", "FID": "MH"}, "id": "MH"}, {"type": "Feature", "geometry": {"type": "Point", "coordinates": [145.6042, 15.7746]}, "properties": {"CNTR_ID": "MP", "CNTR_NAME": "Northern Mariana Islands-Notte Mariånas-Northern Mariana Islands", "NAME_ENGL": "Northern Mariana Islands", "NAME_FREN": "Îles Mariannes du Nord", "ISO3_CODE": "MNP", "SVRG_UN": "US Territory", "CAPT": "Saipan", "EU_STAT": "F", "EFTA_STAT": "F", "CC_STAT": "F", "NAME_GERM": "Nördlichen Marianen", "FID": "MP"}, "id": "MP"}, {"type": "Feature", "geometry": {"type": "Point", "coordinates": [-10.4275, -25.4529]}, "properties": {"CNTR_ID": "SH", "CNTR_NAME": "Saint Helena, Ascension and Tristan Da Cunha", "NAME_ENGL": "Saint Helena, Ascension and Tristan Da Cunha", "NAME_FREN": "Sainte-Hélène, Ascension et Tristan da Cunha", "ISO3_CODE": "SHN", "SVRG_UN": "UK Non-Self-Governing Territory", "CAPT": "Jamestown", "EU_STAT": "F", "EFTA_STAT": "F", "CC_STAT": "F", "NAME_GERM": "St. Helena, Ascension und Tristan da Cunha", "FID": "SH"}, "id": "SH"}, {"type": "Feature", "geometry": {"type": "Point", "coordinates": [-171.8539, -9.193]}, "properties": {"CNTR_ID": "TK", "CNTR_NAME": "Tokelau-Tokelau", "NAME_ENGL": "Tokelau", "NAME_FREN": "Tokélaou", "ISO3_CODE": "TKL", "SVRG_UN": "NZ Non-Self-Governing Territory", "CAPT": "Atafu", "EU_STAT": "F", "EFTA_STAT": "F", "CC_STAT": "F", "NAME_GERM": "Tokelau", "FID": "TK"}, "id": "TK"}], "crs": {"type": "name", "properties": {"name": "urn:ogc:def:crs:EPSG::4326"}}}